[
{"codCNH":"380282","name":"HOSPITAL QUIRÓN COSTA ADEJE","idRegion":"ES709","phone":"922752626","fax":"922796570","beds":62.0,"type":"GENERAL","notes":"","agreement":"NO","lat":"28.07443035","lon":"-16.72977275555476"},
{"codCNH":"260110","name":"CENTRO ASISTENCIAL DE ALBELDA DE IREGUA","idRegion":"ES230","phone":"941279220","fax":"941279209","beds":140.0,"type":"PSIQUIÁTRICO","notes":"","agreement":"NO","lat":"","lon":""},
{"codCNH":"120160","name":"SERVICIOS SANITARIOS DEL CENTRO PENITENCIARIO DE CASTELLÓN II (ALBOCÀSSER)","idRegion":"ES522","phone":"964158500","fax":"964158536","beds":64.0,"type":"OTRA FINALIDAD","notes":"","agreement":"NO","lat":"","lon":""},
{"codCNH":"410227","name":"HOSPITAL EL TOMILLAR","idRegion":"ES618","phone":"955016000","fax":"955016032","beds":0.0,"type":"GENERAL","notes":"","agreement":"NO","lat":"37.29821355","lon":"-5.900841711054524"},
{"codCNH":"280745","name":"HOSPITAL UNIVERSITARIO PRÍNCIPE DE ASTURIAS","idRegion":"ES300","phone":"918878100","fax":"918801825","beds":507.0,"type":"GENERAL","notes":"","agreement":"NO","lat":"40.51012885","lon":"-3.347488080533651"},
{"codCNH":"281371","name":"HM VALLES","idRegion":"ES300","phone":"917374353","fax":"912805932","beds":20.0,"type":"OTRA FINALIDAD","notes":"","agreement":"SI","lat":"","lon":""},
{"codCNH":"230184","name":"HOSPITAL DE ALTA RESOLUCIÓN DE ALCALÁ LA REAL","idRegion":"ES616","phone":"953599008","fax":"953599058","beds":28.0,"type":"GENERAL","notes":"","agreement":"NO","lat":"37.4542646","lon":"-3.9314382856966112"},
{"codCNH":"300119","name":"CLÍNICA MÉDICO-QUIRÚRGICA SAN JOSÉ, S.A.","idRegion":"ES620","phone":"968800600","fax":"968800347","beds":139.0,"type":"MÉDICO-QUIRÚRGICO","notes":"","agreement":"SI","lat":"","lon":""},
{"codCNH":"440048","name":"HOSPITAL DE ALCAÑIZ","idRegion":"ES242","phone":"978830100","fax":"978830977","beds":131.0,"type":"GENERAL","notes":"","agreement":"NO","lat":"41.050253999999995","lon":"-0.1329565"},
{"codCNH":"230173","name":"HOSPITAL DE ALTA RESOLUCIÓN DE ALCAUDETE","idRegion":"ES616","phone":"953368211","fax":"953368287","beds":16.0,"type":"GENERAL","notes":"","agreement":"NO","lat":"","lon":""},
{"codCNH":"130052","name":"HOSPITAL GENERAL LA MANCHA CENTRO","idRegion":"ES422","phone":"926580500","fax":"926547700","beds":353.0,"type":"GENERAL","notes":"","agreement":"NO","lat":"40.3614274","lon":"-2.8541895"},
{"codCNH":"281071","name":"HOSPITAL UNIVERSITARIO FUNDACIÓN ALCORCÓN","idRegion":"ES300","phone":"916219400","fax":"916219902","beds":400.0,"type":"GENERAL","notes":"","agreement":"NO","lat":"","lon":""},
{"codCNH":"281124","name":"HOSPITAL QUIRONSALUD SUR","idRegion":"ES300","phone":"916496600","fax":"916496604","beds":81.0,"type":"MÉDICO-QUIRÚRGICO","notes":"","agreement":"SI","lat":"40.34289695","lon":"-3.849272988446331"},
{"codCNH":"30089","name":"SANATORIO SAN JORGE S.L.","idRegion":"ES521","phone":"965330400","fax":"965330400","beds":26.0,"type":"GENERAL","notes":"","agreement":"SI","lat":"","lon":""},
{"codCNH":"30067","name":"HOSPITAL VIRGEN DE LOS LIRIOS","idRegion":"ES521","phone":"965537400","fax":"965537448","beds":305.0,"type":"GENERAL","notes":"","agreement":"NO","lat":"","lon":""},
{"codCNH":"81192","name":"CENTRE SOCIOSANITARI CAN TORRAS","idRegion":"ES511","phone":"935551994","fax":"935555559","beds":119.0,"type":"GERIATRÍA Y/O LARGA ESTANCIA","notes":"","agreement":"NO","lat":"","lon":""},
{"codCNH":"110259","name":"HOSPITAL PUNTA DE EUROPA","idRegion":"ES612","phone":"956025000","fax":"956025057","beds":327.0,"type":"GENERAL","notes":"","agreement":"NO","lat":"37.205388299999996","lon":"-5.3195356"},
{"codCNH":"250210","name":"SANT JOAN DE DÉU TERRES DE LLEIDA","idRegion":"ES513","phone":"973740010","fax":"973741193","beds":29.0,"type":"PSIQUIÁTRICO","notes":"","agreement":"NO","lat":"","lon":""},
{"codCNH":"20136","name":"HOSPITAL GENERAL DE ALMANSA","idRegion":"ES421","phone":"967339526","fax":"967339546","beds":93.0,"type":"GENERAL","notes":"","agreement":"NO","lat":"38.87948905","lon":"-1.093931250703585"},
{"codCNH":"60080","name":"HOSPITAL \"FUNDACIÓN SAN JUAN DE DIOS DE EXTREMADURA\"","idRegion":"ES431","phone":"924670017","fax":"924662805","beds":105.0,"type":"GERIATRÍA Y/O LARGA ESTANCIA","notes":"","agreement":"SI","lat":"","lon":""},
{"codCNH":"60242","name":"HOSPITAL TIERRA DE BARROS","idRegion":"ES431","phone":"924699200","fax":"924699214","beds":0.0,"type":"GENERAL","notes":"","agreement":"NO","lat":"38.65578645","lon":"-6.376803332984852"},
{"codCNH":"250175","name":"RESIDÈNCIA TERRAFERMA","idRegion":"ES513","phone":"973737455","fax":"973737001","beds":137.0,"type":"GERIATRÍA Y/O LARGA ESTANCIA","notes":"","agreement":"NO","lat":"","lon":""},
{"codCNH":"310142","name":"CLÍNICA PSICOGERIÁTRICA JOSEFINA ARREGUI","idRegion":"ES220","phone":"948563850","fax":"948563961","beds":21.0,"type":"PSIQUIÁTRICO","notes":"","agreement":"SI","lat":"42.89870065","lon":"-2.1715503458831886"},
{"codCNH":"460351","name":"HOSPITAL UNIVERSITARIO DE LA RIBERA","idRegion":"ES523","phone":"962458100","fax":"962458159","beds":301.0,"type":"GENERAL","notes":"","agreement":"NO","lat":"39.159488399999994","lon":"-0.4159720469745212"},
{"codCNH":"81350","name":"CENTRE POLIVALENT CAN FOSC","idRegion":"ES511","phone":"938432786","fax":"","beds":56.0,"type":"GERIATRÍA Y/O LARGA ESTANCIA","notes":"","agreement":"NO","lat":"","lon":""},
{"codCNH":"430252","name":"HOSPITAL COMARCAL D'AMPOSTA","idRegion":"ES514","phone":"977700050","fax":"977702894","beds":88.0,"type":"GENERAL","notes":"","agreement":"","lat":"40.706817799999996","lon":"0.5806326"},
{"codCNH":"430287","name":"UNITAT POLIVALENT EN SALUT MENTAL D'AMPOSTA","idRegion":"ES514","phone":"977338565","fax":"","beds":127.0,"type":"PSIQUIÁTRICO","notes":"","agreement":"NO","lat":"","lon":""},
{"codCNH":"230145","name":"HOSPITAL ALTO GUADALQUIVIR","idRegion":"ES616","phone":"953021575","fax":"953021405","beds":67.0,"type":"GENERAL","notes":"Empresa Pública","agreement":"NO","lat":"38.04019925","lon":"-4.0308082966568906"},
{"codCNH":"290154","name":"HOSPITAL DE ANTEQUERA","idRegion":"ES617","phone":"951061008","fax":"951291009","beds":159.0,"type":"GENERAL","notes":"","agreement":"NO","lat":"37.0183652","lon":"-4.5596649000000005"},
{"codCNH":"90079","name":"HOSPITAL SANTOS REYES","idRegion":"ES412","phone":"947522000","fax":"947522012","beds":123.0,"type":"GENERAL","notes":"","agreement":"NO","lat":"41.66964395","lon":"-3.6915981445347117"},
{"codCNH":"90085","name":"HOSPITAL RESIDENCIA ASISTIDA DE LA LUZ","idRegion":"ES412","phone":"947500150","fax":"947507583","beds":75.0,"type":"GERIATRÍA Y/O LARGA ESTANCIA","notes":"","agreement":"SI","lat":"","lon":""},
{"codCNH":"281292","name":"HOSPITAL UNIVERSITARIO DEL TAJO","idRegion":"ES300","phone":"918014101","fax":"918014302","beds":98.0,"type":"GENERAL","notes":"","agreement":"NO","lat":"","lon":""},
{"codCNH":"81616","name":"COMUNITAT TERAPÈUTICA ARENYS DE MUNT","idRegion":"ES511","phone":"937938006","fax":"937951037","beds":42.0,"type":"PSIQUIÁTRICO","notes":"","agreement":"NO","lat":"","lon":""},
{"codCNH":"50072","name":"HOSPITAL DE SALUD MENTAL CASTA SALUD ARÉVALO","idRegion":"ES411","phone":"920301400","fax":"920300951","beds":80.0,"type":"PSIQUIÁTRICO","notes":"","agreement":"SI","lat":"","lon":""},
{"codCNH":"281281","name":"HOSPITAL UNIVERSITARIO DEL SURESTE","idRegion":"ES300","phone":"918394454","fax":"918394278","beds":132.0,"type":"GENERAL","notes":"","agreement":"NO","lat":"","lon":""},
{"codCNH":"81568","name":"ITA MARESME","idRegion":"ES511","phone":"937530062","fax":"937533288","beds":77.0,"type":"OTROS MONOGRÁFICOS","notes":"","agreement":"NO","lat":"41.54705145","lon":"2.3992675917026003"},
{"codCNH":"82213","name":"CENTRE D'HOSPITALITZACIÓ I HOSPITAL DE DIA TRASTORNS DE LA CONDUCTA","idRegion":"ES511","phone":"937533006","fax":"937533288","beds":40.0,"type":"PSIQUIÁTRICO","notes":"","agreement":"NO","lat":"","lon":""},
{"codCNH":"380348","name":"HOSPITAL DEL SUR","idRegion":"ES709","phone":"922174740","fax":"922174743","beds":0.0,"type":"GENERAL","notes":"","agreement":"NO","lat":"28.06912245","lon":"-16.705016866108814"},
{"codCNH":"380146","name":"HOSPITEN SUR","idRegion":"ES709","phone":"922750022","fax":"922793618","beds":242.0,"type":"GENERAL","notes":"","agreement":"SI","lat":"28.058582450000007","lon":"-16.72487357452235"},
{"codCNH":"200185","name":"ORGANIZACIÓN SANITARIA INTEGRADA ALTO DEBA","idRegion":"ES212","phone":"943035300","fax":"943035314","beds":90.0,"type":"GENERAL","notes":"","agreement":"NO","lat":"","lon":""},
{"codCNH":"200202","name":"HOSPITAL PSIQUIÁTRICO SAN JUAN DE DIOS","idRegion":"","phone":"943793900","fax":"943770719","beds":299.0,"type":"PSIQUIÁTRICO","notes":"","agreement":"SI","lat":"","lon":""},
{"codCNH":"200198","name":"HOSPITAL AITA MENNI","idRegion":"","phone":"943794411","fax":"943796161","beds":442.0,"type":"PSIQUIÁTRICO","notes":"","agreement":"SI","lat":"43.062727200000005","lon":"-2.5294037"},
{"codCNH":"350249","name":"HOSPITAL INSULAR DE LANZAROTE","idRegion":"ES708","phone":"928810000","fax":"928812263","beds":80.0,"type":"GERIATRÍA Y/O LARGA ESTANCIA","notes":"","agreement":"SI","lat":"28.963537699999996","lon":"-13.543453570997048"},
{"codCNH":"350228","name":"HOSPITAL DOCTOR JOSÉ MOLINA OROSA","idRegion":"ES708","phone":"928595103","fax":"928815034","beds":292.0,"type":"GENERAL","notes":"","agreement":"NO","lat":"","lon":""},
{"codCNH":"330100","name":"HOSPITAL  UNIVERSITARIO \"SAN AGUSTÍN\"","idRegion":"ES120","phone":"985123000","fax":"985123010","beds":436.0,"type":"GENERAL","notes":"","agreement":"NO","lat":"40.6192498","lon":"-3.152988"},
{"codCNH":"330117","name":"FUNDACIÓN HOSPITAL DE AVILÉS","idRegion":"ES120","phone":"985563954","fax":"985525236","beds":90.0,"type":"MÉDICO-QUIRÚRGICO","notes":"","agreement":"SI","lat":"43.55461725","lon":"-5.926359490561223"},
{"codCNH":"80667","name":"HOSPITAL UNIVERSITARI GERMANS TRIAS I PUJOL DE BADALONA","idRegion":"ES511","phone":"934651200","fax":"934978843","beds":516.0,"type":"GENERAL","notes":"","agreement":"","lat":"41.4810542","lon":"2.2381723732976044"},
{"codCNH":"80689","name":"CENTRE SOCIOSANITARI EL CARME","idRegion":"ES511","phone":"935074710","fax":"934644905","beds":210.0,"type":"GERIATRÍA Y/O LARGA ESTANCIA","notes":"","agreement":"NO","lat":"41.4591142","lon":"2.2313871226874964"},
{"codCNH":"81694","name":"INSTITUT CATALÀ D'ONCOLOGIA - HOSPITAL GERMANS TRIAS I PUJOL","idRegion":"ES511","phone":"934651200","fax":"934978843","beds":36.0,"type":"ONCOLÓGICO","notes":"","agreement":"","lat":"","lon":""},
{"codCNH":"80673","name":"HOSPITAL MUNICIPAL DE BADALONA","idRegion":"ES511","phone":"934648300","fax":"934648391","beds":140.0,"type":"GENERAL","notes":"","agreement":"","lat":"","lon":""},
{"codCNH":"80333","name":"INSTITUT GUTTMANN","idRegion":"ES511","phone":"934977700","fax":"934977707","beds":152.0,"type":"TRAUMATOLOGÍA Y/O REHABILITACIÓN","notes":"","agreement":"","lat":"41.478879000000006","lon":"2.236995354630269"},
{"codCNH":"250169","name":"HESTIA BALAGUER.","idRegion":"ES513","phone":"973450304","fax":"973451321","beds":120.0,"type":"GERIATRÍA Y/O LARGA ESTANCIA","notes":"","agreement":"NO","lat":"41.78901315","lon":"0.8197268915156748"},
{"codCNH":"170097","name":"CLÍNICA SALUS INFIRMORUM","idRegion":"ES512","phone":"972570208","fax":"972573202","beds":100.0,"type":"GERIATRÍA Y/O LARGA ESTANCIA","notes":"","agreement":"","lat":"42.11477385000001","lon":"2.7609439325545218"},
{"codCNH":"480176","name":"HOSPITAL UNIVERSITARIO DE CRUCES","idRegion":"ES213","phone":"946006000","fax":"946006067","beds":912.0,"type":"GENERAL","notes":"","agreement":"NO","lat":"43.2824977","lon":"-2.9843116994068803"},
{"codCNH":"480182","name":"OSI BARAKALDO-SESTAO","idRegion":"ES213","phone":"944006700","fax":"944006727","beds":128.0,"type":"GENERAL","notes":"","agreement":"NO","lat":"","lon":""},
{"codCNH":"320034","name":"HOSPITAL SANTO CRISTO DE PIÑOR (PSIQUIATRICO)","idRegion":"ES113","phone":"988385500","fax":"988385551","beds":0.0,"type":"GENERAL","notes":"","agreement":"NO","lat":"","lon":""},
{"codCNH":"220054","name":"HOSPITAL DE BARBASTRO","idRegion":"ES241","phone":"974249000","fax":"974249074","beds":172.0,"type":"GENERAL","notes":"","agreement":"NO","lat":"42.035291","lon":"0.1273884"},
{"codCNH":"320126","name":"HOSPITAL DE VALDEORRAS (*)","idRegion":"ES113","phone":"988339000","fax":"988339064","beds":100.0,"type":"GENERAL","notes":"RM compartida (3 unidades móviles RM)","agreement":"NO","lat":"42.34834155","lon":"-6.965998212216205"},
{"codCNH":"110282","name":"HOSPITAL QUIRÓN CAMPO DE GIBRALTAR","idRegion":"","phone":"11379","fax":"956798301","beds":"","type":"PRIVADO NO BENÉFICO","notes":"GENERAL","agreement":"","lat":"36.1851682","lon":"-5.431207982008856"},
{"codCNH":"180093","name":"HOSPITAL DE BAZA","idRegion":"ES614","phone":"958031303","fax":"958031392","beds":117.0,"type":"GENERAL","notes":"","agreement":"NO","lat":"37.4888637","lon":"-2.7709805"},
{"codCNH":"310109","name":"CENTRO HOSPITALARIO BENITO MENNI","idRegion":"ES220","phone":"948452162","fax":"948452478","beds":148.0,"type":"PSIQUIÁTRICO","notes":"","agreement":"SI","lat":"41.62779285","lon":"-4.722582926373626"},
{"codCNH":"290427","name":"HOSPITAL DE ALTA RESOLUCIÓN DE BENALMÁDENA","idRegion":"ES617","phone":"951976000","fax":"951976093","beds":46.0,"type":"GENERAL","notes":"","agreement":"NO","lat":"","lon":""},
{"codCNH":"290405","name":"XANIT HOSPITAL INTERNACIONAL","idRegion":"ES617","phone":"952443119","fax":"952576661","beds":125.0,"type":"GENERAL","notes":"","agreement":"NO","lat":"","lon":""},
{"codCNH":"290393","name":"FUNDACIÓN CUDECA. CENTRO DE CUIDADOS PALIATIVOS","idRegion":"ES617","phone":"952564910","fax":"952564922","beds":15.0,"type":"OTROS MONOGRÁFICOS","notes":"","agreement":"NO","lat":"","lon":""},
{"codCNH":"490065","name":"HOSPITAL DE BENAVENTE","idRegion":"ES419","phone":"980631900","fax":"980630105","beds":0.0,"type":"GENERAL","notes":"","agreement":"SI","lat":"42.003286200000005","lon":"-5.6738595"},
{"codCNH":"30279","name":"CENTRO MÉDICO ACUARIO","idRegion":"ES521","phone":"966476260","fax":"966477115","beds":19.0,"type":"GENERAL","notes":"","agreement":"NO","lat":"","lon":""},
{"codCNH":"30092","name":"HOSPITAL CLÍNICA BENIDORM","idRegion":"ES521","phone":"965853850","fax":"965864345","beds":166.0,"type":"GENERAL","notes":"","agreement":"SI","lat":"38.543056","lon":"-0.12930062356423858"},
{"codCNH":"80692","name":"HOSPITAL COMARCAL DE SANT BERNABÉ","idRegion":"ES511","phone":"938243400","fax":"938243416","beds":150.0,"type":"GENERAL","notes":"","agreement":"","lat":"","lon":""},
{"codCNH":"480195","name":"RED DE SALUD MENTAL DE BIZKAIA (HOSPITAL DE BERMEO)","idRegion":"ES213","phone":"946029000","fax":"946029020","beds":131.0,"type":"PSIQUIÁTRICO","notes":"","agreement":"NO","lat":"","lon":""},
{"codCNH":"460168","name":"HOSPITAL PSIQUIÁTRICO PROVINCIAL","idRegion":"ES523","phone":"961699080","fax":"961699052","beds":80.0,"type":"PSIQUIÁTRICO","notes":"","agreement":"NO","lat":"","lon":""},
{"codCNH":"170101","name":"HOSPITAL DE SANT JAUME","idRegion":"ES512","phone":"972331550","fax":"972333679","beds":23.0,"type":"GERIATRÍA Y/O LARGA ESTANCIA","notes":"","agreement":"NO","lat":"42.1872302","lon":"2.0242654013144588"},
{"codCNH":"170237","name":"HOSPITAL COMARCAL DE BLANES","idRegion":"ES512","phone":"972353264","fax":"972353343","beds":121.0,"type":"GENERAL","notes":"","agreement":"","lat":"","lon":""},
{"codCNH":"281090","name":"HOSPITAL UNIVERSITARIO HM  MONTEPRÍNCIPE","idRegion":"ES300","phone":"917089900","fax":"912110118","beds":170.0,"type":"GENERAL","notes":"","agreement":"SI","lat":"","lon":""},
{"codCNH":"410212","name":"RESIDENCIA DE SALUD MENTAL NUESTRA SEÑORA DEL CARMEN","idRegion":"ES618","phone":"955723391","fax":"954905674","beds":54.0,"type":"PSIQUIÁTRICO","notes":"","agreement":"NO","lat":"","lon":""},
{"codCNH":"410353","name":"HOSPITAL SAN JUAN DE DIOS DEL ALJARAFE","idRegion":"ES618","phone":"955050550","fax":"955059162","beds":200.0,"type":"GENERAL","notes":"","agreement":"SI","lat":"","lon":""},
{"codCNH":"380316","name":"HOSPITAL GENERAL DE LA PALMA","idRegion":"ES707","phone":"922185000","fax":"922185084","beds":198.0,"type":"GENERAL","notes":"","agreement":"NO","lat":"28.6726357","lon":"-17.790392194539308"},
{"codCNH":"281180","name":"HOSPITAL LOS MADROÑOS","idRegion":"ES300","phone":"918163526","fax":"918159728","beds":53.0,"type":"GENERAL","notes":"","agreement":"SI","lat":"36.7727255","lon":"-3.6230212999999996"},
{"codCNH":"70162","name":"HOSPITAL JOAN MARCH","idRegion":"ES532","phone":"871202000","fax":"871202497","beds":106.0,"type":"GERIATRÍA Y/O LARGA ESTANCIA","notes":"","agreement":"SI","lat":"39.67882475","lon":"2.688309455498457"},
{"codCNH":"270095","name":"HOSPITAL PUBLICO DA MARIÑA (*)","idRegion":"ES112","phone":"982589901","fax":"982589908","beds":139.0,"type":"GENERAL","notes":"RM compartida (3 unidades móviles RM)","agreement":"NO","lat":"","lon":""},
{"codCNH":"460404","name":"IMED VALENCIA","idRegion":"ES523","phone":"963003003","fax":"966263079","beds":207.0,"type":"GENERAL","notes":"","agreement":"SI","lat":"38.28806295","lon":"-0.6163641948075638"},
{"codCNH":"140116","name":"HOSPITAL INFANTA MARGARITA","idRegion":"ES613","phone":"957021300","fax":"957021322","beds":232.0,"type":"GENERAL","notes":"","agreement":"NO","lat":"37.4685126","lon":"-4.4246365"},
{"codCNH":"100015","name":"HOSPITAL SAN PEDRO DE ALCÁNTARA","idRegion":"ES432","phone":"927256200","fax":"927256202","beds":0.0,"type":"GENERAL","notes":"","agreement":"NO","lat":"39.46554175","lon":"-6.368229221078828"},
{"codCNH":"100020","name":"HOSPITAL PROVINCIAL NUESTRA SEÑORA DE LA MONTAÑA","idRegion":"ES432","phone":"927256800","fax":"927256816","beds":0.0,"type":"GENERAL","notes":"","agreement":"NO","lat":"","lon":""},
{"codCNH":"260099","name":"FUNDACIÓN HOSPITAL CALAHORRA","idRegion":"ES230","phone":"941151003","fax":"941151103","beds":80.0,"type":"GENERAL","notes":"Fundación Pública","agreement":"SI","lat":"37.875626700000005","lon":"-4.7765896854308405"},
{"codCNH":"260132","name":"CENTRO  SOCIOSANITARIO  DE CONVALECENCIA NUESTRA SEÑORA VIRGEN DEL CARMEN","idRegion":"ES230","phone":"941010000","fax":"941010001","beds":75.0,"type":"GERIATRÍA Y/O LARGA ESTANCIA","notes":"","agreement":"NO","lat":"","lon":""},
{"codCNH":"500153","name":"HOSPITAL ERNEST LLUCH MARTIN","idRegion":"ES243","phone":"976880964","fax":"976880470","beds":122.0,"type":"GENERAL","notes":"","agreement":"NO","lat":"41.3843547","lon":"2.1019053154910337"},
{"codCNH":"81311","name":"RESIDÈNCIA SANTA SUSANNA","idRegion":"ES511","phone":"938654994","fax":"938653619","beds":64.0,"type":"GERIATRÍA Y/O LARGA ESTANCIA","notes":"","agreement":"NO","lat":"","lon":""},
{"codCNH":"80706","name":"HOSPITAL COMARCAL SANT JAUME DE CALELLA","idRegion":"ES511","phone":"937690201","fax":"937694411","beds":233.0,"type":"GENERAL","notes":"","agreement":"","lat":"41.6150516","lon":"2.6566914851021"},
{"codCNH":"170118","name":"HOSPITAL DE CAMPDEVÀNOL","idRegion":"ES512","phone":"972730028","fax":"972730223","beds":80.0,"type":"GENERAL","notes":"","agreement":"","lat":"42.2226507","lon":"2.166929885034212"},
{"codCNH":"330138","name":"HOSPITAL CARMEN Y SEVERO OCHOA","idRegion":"ES120","phone":"985812346","fax":"985812236","beds":103.0,"type":"GENERAL","notes":"","agreement":"NO","lat":"28.9552185","lon":"-13.6497698"},
{"codCNH":"300130","name":"CLÍNICA DOCTOR BERNAL S.L.","idRegion":"ES620","phone":"968705541","fax":"968707914","beds":39.0,"type":"GERIATRÍA Y/O LARGA ESTANCIA","notes":"","agreement":"SI","lat":"","lon":""},
{"codCNH":"300124","name":"HOSPITAL COMARCAL DEL NOROESTE","idRegion":"ES620","phone":"968709100","fax":"968707219","beds":103.0,"type":"GENERAL","notes":"","agreement":"NO","lat":"38.1037408","lon":"-1.8673701029918532"},
{"codCNH":"460333","name":"HOSPITAL NISA AGUAS VIVAS","idRegion":"ES523","phone":"962588800","fax":"962975016","beds":96.0,"type":"GENERAL","notes":"","agreement":"SI","lat":"39.08819490000001","lon":"-0.3550081654888988"},
{"codCNH":"460415","name":"UNIDAD DE DESINTOXICACIÓN HOSPITALARIA","idRegion":"ES523","phone":"962588800","fax":"","beds":16.0,"type":"OTROS MONOGRÁFICOS","notes":"","agreement":"NO","lat":"","lon":""},
{"codCNH":"370074","name":"HOSPITAL LOS MONTALVOS","idRegion":"ES415","phone":"923330163","fax":"923330418","beds":0.0,"type":"GENERAL","notes":"","agreement":"NO","lat":"40.92633695","lon":"-5.740990357695376"},
{"codCNH":"300145","name":"HOSPITAL SANTA MARÍA DEL ROSELL","idRegion":"ES620","phone":"968325000","fax":"968504296","beds":0.0,"type":"GENERAL","notes":"","agreement":"NO","lat":"","lon":""},
{"codCNH":"300161","name":"SANTO Y REAL HOSPITAL DE CARIDAD","idRegion":"ES620","phone":"968510300","fax":"968510300","beds":154.0,"type":"GERIATRÍA Y/O LARGA ESTANCIA","notes":"","agreement":"SI","lat":"37.62743585","lon":"-0.9939015467933054"},
{"codCNH":"300177","name":"HOSPITAL NUESTRA SEÑORA DEL PERPETUO SOCORRO","idRegion":"ES620","phone":"968510500","fax":"968536976","beds":214.0,"type":"MÉDICO-QUIRÚRGICO","notes":"","agreement":"SI","lat":"","lon":""},
{"codCNH":"300340","name":"RESIDENCIA LOS ALMENDROS","idRegion":"ES620","phone":"968168716","fax":"968538054","beds":60.0,"type":"GERIATRÍA Y/O LARGA ESTANCIA","notes":"","agreement":"SI","lat":"37.6287235","lon":"-1.0661091751280591"},
{"codCNH":"300384","name":"HOSPITAL C.M.V. CARIDAD CARTAGENA","idRegion":"ES620","phone":"968506666","fax":"868091856","beds":40.0,"type":"MÉDICO-QUIRÚRGICO","notes":"","agreement":"SI","lat":"","lon":""},
{"codCNH":"300362","name":"HOSPITAL GENERAL UNIVERSITARIO SANTA LUCIA","idRegion":"ES620","phone":"968128600","fax":"","beds":0.0,"type":"GENERAL","notes":"","agreement":"NO","lat":"37.6017877","lon":"-0.9615991572862556"},
{"codCNH":"300373","name":"HOSPITAL PERPETUO SOCORRO ALAMEDA","idRegion":"ES620","phone":"968115055","fax":"968527154","beds":93.0,"type":"GERIATRÍA Y/O LARGA ESTANCIA","notes":"","agreement":"SI","lat":"42.1446274","lon":"-0.407067"},
{"codCNH":"300351","name":"COMPLEJO HOSPITALARIO UNIVERSITARIO DE CARTAGENA","idRegion":"ES620","phone":"968128600","fax":"","beds":691.0,"type":"GENERAL","notes":"","agreement":"NO","lat":"","lon":""},
{"codCNH":"290517","name":"HOSPITAL VALLE DEL GUADALHORCE DE CÁRTAMA","idRegion":"ES617","phone":"951291105","fax":"","beds":0.0,"type":"GENERAL","notes":"","agreement":"NO","lat":"36.721844899999994","lon":"-4.6710606"},
{"codCNH":"410375","name":"HOSPITAL NISA SEVILLA-ALJARAFE","idRegion":"ES618","phone":"954464000","fax":"954161503","beds":148.0,"type":"GENERAL","notes":"","agreement":"NO","lat":"","lon":""},
{"codCNH":"150341","name":"HOSPITAL VIRXE DA XUNQUEIRA (*)","idRegion":"ES111","phone":"981706010","fax":"981706198","beds":74.0,"type":"GENERAL","notes":"RM compartida (3 unidades móviles RM)","agreement":"NO","lat":"42.95368255","lon":"-9.19137737985391"},
{"codCNH":"300196","name":"FUNDACION HOSPITAL REAL PIEDAD","idRegion":"ES620","phone":"968741156","fax":"968741246","beds":40.0,"type":"GERIATRÍA Y/O LARGA ESTANCIA","notes":"","agreement":"SI","lat":"","lon":""},
{"codCNH":"280761","name":"HOSPITAL DE LA FUENFRÍA","idRegion":"ES300","phone":"918520300","fax":"918521567","beds":192.0,"type":"GERIATRÍA Y/O LARGA ESTANCIA","notes":"","agreement":"NO","lat":"40.76061925000001","lon":"-4.074074538461158"},
{"codCNH":"110248","name":"HOSPITAL VIAMED BAHÍA DE CÁDIZ","idRegion":"ES612","phone":"956533333","fax":"956409057","beds":46.0,"type":"GENERAL","notes":"","agreement":"NO","lat":"36.4208846","lon":"-6.150083900000001"},
{"codCNH":"110260","name":"HOSPITAL VIAMED NOVO SANCTI PETRI","idRegion":"ES612","phone":"956495000","fax":"956498415","beds":37.0,"type":"GENERAL","notes":"","agreement":"NO","lat":"","lon":""},
{"codCNH":"280783","name":"CENTRO SAN JUAN DE DIOS","idRegion":"ES300","phone":"918930001","fax":"918932868","beds":339.0,"type":"PSIQUIÁTRICO","notes":"","agreement":"SI","lat":"40.16178410000001","lon":"-3.6143526451763694"},
{"codCNH":"280777","name":"HH. HH. SGDO. C. DE JESÚS. COMPLEJO ASISTENCIAL BENITO MENNI","idRegion":"ES300","phone":"918930150","fax":"918930175","beds":318.0,"type":"PSIQUIÁTRICO","notes":"","agreement":"SI","lat":"","lon":""},
{"codCNH":"300281","name":"HOSPITAL DE LA VEGA LORENZO GUIRAO","idRegion":"ES620","phone":"968775550","fax":"968775563","beds":124.0,"type":"GENERAL","notes":"","agreement":"NO","lat":"38.229532299999995","lon":"-1.4090223094965109"},
{"codCNH":"70244","name":"CLÍNICA JUANEDA MENORCA","idRegion":"ES533","phone":"971480505","fax":"971480506","beds":41.0,"type":"GENERAL","notes":"","agreement":"SI","lat":"40.0048071","lon":"3.8418321000000004"},
{"codCNH":"330143","name":"HOSPITAL COMARCAL DE JARRIO","idRegion":"ES120","phone":"985639300","fax":"985473367","beds":105.0,"type":"GENERAL","notes":"","agreement":"NO","lat":"43.5447646","lon":"-6.746878999999999"},
{"codCNH":"281359","name":"HOSPITAL GENERAL DE VILLALBA","idRegion":"ES300","phone":"910908102","fax":"910908122","beds":209.0,"type":"GENERAL","notes":"","agreement":"NO","lat":"","lon":""},
{"codCNH":"410397","name":"HOSPITAL DE ALTA RESOLUCIÓN SIERRA NORTE","idRegion":"ES618","phone":"955889037","fax":"955889110","beds":8.0,"type":"GENERAL","notes":"","agreement":"NO","lat":"","lon":""},
{"codCNH":"100041","name":"HOSPITAL CIUDAD DE CORIA","idRegion":"ES432","phone":"927149200","fax":"927501898","beds":103.0,"type":"GENERAL","notes":"","agreement":"NO","lat":"39.9910684","lon":"-6.5422559176337005"},
{"codCNH":"81717","name":"CENTRE SOCIOSANITARI SARQUAVITAE SANT JORDI","idRegion":"ES511","phone":"934752690","fax":"934709762","beds":51.0,"type":"GERIATRÍA Y/O LARGA ESTANCIA","notes":"","agreement":"NO","lat":"","lon":""},
{"codCNH":"281269","name":"HOSPITAL UNIVERSITARIO DEL HENARES","idRegion":"ES300","phone":"911912000","fax":"911912288","beds":243.0,"type":"GENERAL","notes":"","agreement":"NO","lat":"","lon":""},
{"codCNH":"280796","name":"HOSPITAL MONOGRÁFICO ASEPEYO DE TRAUMAT. CIRUGÍA Y REHABILITACIÓN","idRegion":"ES300","phone":"916735011","fax":"916276204","beds":133.0,"type":"TRAUMATOLOGÍA Y/O REHABILITACIÓN","notes":"","agreement":"NO","lat":"","lon":""},
{"codCNH":"30351","name":"HOSPITAL LA PEDRERA","idRegion":"ES521","phone":"966467170","fax":"966467287","beds":107.0,"type":"GERIATRÍA Y/O LARGA ESTANCIA","notes":"","agreement":"NO","lat":"38.828024400000004","lon":"0.0962898167350424"},
{"codCNH":"30128","name":"HOSPITAL SAN CARLOS DE DENIA GRUPO HLA","idRegion":"ES521","phone":"965781550","fax":"965789172","beds":31.0,"type":"GENERAL","notes":"","agreement":"NO","lat":"","lon":""},
{"codCNH":"30340","name":"HOSPITAL DE DENIA","idRegion":"ES521","phone":"966429000","fax":"966427986","beds":266.0,"type":"GENERAL","notes":"Concesión Administrativa a Entidad Privada","agreement":"NO","lat":"38.8325999","lon":"0.057965300000000004"},
{"codCNH":"60093","name":"HOSPITAL DON BENITO-VILLANUEVA DE LA SERENA","idRegion":"ES431","phone":"924386800","fax":"924386801","beds":0.0,"type":"GENERAL","notes":"","agreement":"NO","lat":"38.963206","lon":"-5.827535830537998"},
{"codCNH":"60297","name":"HOSPITAL PARQUE VEGAS ALTAS","idRegion":"ES431","phone":"924805050","fax":"924812690","beds":21.0,"type":"GENERAL","notes":"","agreement":"SI","lat":"","lon":""},
{"codCNH":"60253","name":"COMPLEJO H. DON BENITO-VVA DE LA SERENA","idRegion":"ES431","phone":"924382800","fax":"924386801","beds":320.0,"type":"GENERAL","notes":"","agreement":"NO","lat":"","lon":""},
{"codCNH":"410233","name":"HOSPITAL SAN AGUSTÍN","idRegion":"ES618","phone":"955050570","fax":"955050578","beds":93.0,"type":"GENERAL","notes":"","agreement":"NO","lat":"43.551953000000005","lon":"-5.9357555"},
{"codCNH":"410432","name":"CLÍNICA DE SALUD MENTAL MIGUEL DE MAÑARA","idRegion":"ES618","phone":"954127033","fax":"","beds":18.0,"type":"PSIQUIÁTRICO","notes":"","agreement":"NO","lat":"","lon":""},
{"codCNH":"410419","name":"HOSPITAL DE ALTA RESOLUCIÓN DE ÉCIJA","idRegion":"ES618","phone":"","fax":"","beds":38.0,"type":"GENERAL","notes":"","agreement":"NO","lat":"37.532349200000006","lon":"-5.092120534726386"},
{"codCNH":"70201","name":"POLICLÍNICA NUESTRA SEÑORA DEL ROSARIO, S.A.","idRegion":"ES531","phone":"971301916","fax":"971301756","beds":70.0,"type":"GENERAL","notes":"","agreement":"SI","lat":"","lon":""},
{"codCNH":"70197","name":"HOSPITAL RESIDENCIA ASISTIDA CAS SERRES","idRegion":"ES531","phone":"971392960","fax":"971392999","beds":5.0,"type":"OTRA FINALIDAD","notes":"","agreement":"SI","lat":"","lon":""},
{"codCNH":"70184","name":"HOSPITAL CAN MISSES","idRegion":"ES531","phone":"971397000","fax":"971397121","beds":245.0,"type":"GENERAL","notes":"","agreement":"NO","lat":"38.9165292","lon":"1.4185996487433037"},
{"codCNH":"500200","name":"CENTRO SANITARIO CINCO VILLAS","idRegion":"ES243","phone":"976677978","fax":"976677972","beds":32.0,"type":"OTRA FINALIDAD","notes":"","agreement":"NO","lat":"","lon":""},
{"codCNH":"40118","name":"HOSPITAL DE PONIENTE","idRegion":"ES611","phone":"950022568","fax":"950022602","beds":273.0,"type":"GENERAL","notes":"","agreement":"NO","lat":"36.75324005","lon":"-2.803197833170879"},
{"codCNH":"30373","name":"HOSPITAL UNIVERSITARIO VINALOPO","idRegion":"ES521","phone":"966679800","fax":"966632102","beds":214.0,"type":"GENERAL","notes":"Concesión Administrativa a Entidad Privada","agreement":"NO","lat":"","lon":""},
{"codCNH":"30384","name":"HOSPITAL IMED ELCHE","idRegion":"ES521","phone":"966915151","fax":"966651341","beds":98.0,"type":"GENERAL","notes":"","agreement":"SI","lat":"38.28806295","lon":"-0.6163641948075638"},
{"codCNH":"30152","name":"HOSPITAL GENERAL UNIVERSITARIO DE ELCHE","idRegion":"ES521","phone":"966616900","fax":"966616707","beds":492.0,"type":"GENERAL","notes":"","agreement":"NO","lat":"38.25978385000001","lon":"-0.6854274803056539"},
{"codCNH":"30165","name":"HOSPITAL GENERAL UNIVERSITARIO DE ELDA-VIRGEN DE LA SALUD","idRegion":"ES521","phone":"966989000","fax":"965398173","beds":513.0,"type":"GENERAL","notes":"","agreement":"NO","lat":"","lon":""},
{"codCNH":"480305","name":"HOSPITAL QUIRONSALUD BIZKAIA","idRegion":"ES213","phone":"902445595","fax":"944898001","beds":110.0,"type":"GENERAL","notes":"","agreement":"NO","lat":"","lon":""},
{"codCNH":"82167","name":"CLÍNICA DIAGONAL","idRegion":"ES511","phone":"932053213","fax":"932806280","beds":98.0,"type":"GENERAL","notes":"","agreement":"NO","lat":"41.378933700000005","lon":"2.097721342988444"},
{"codCNH":"80728","name":"CLÍNICA NOSTRA SENYORA DE GUADALUPE","idRegion":"ES511","phone":"934702970","fax":"933712306","beds":159.0,"type":"GERIATRÍA Y/O LARGA ESTANCIA","notes":"","agreement":"NO","lat":"","lon":""},
{"codCNH":"81784","name":"CENTRE SOCIOSANITARI D'ESPLUGUES","idRegion":"ES511","phone":"936406350","fax":"936520051","beds":131.0,"type":"GERIATRÍA Y/O LARGA ESTANCIA","notes":"","agreement":"NO","lat":"","lon":""},
{"codCNH":"80713","name":"HOSPITAL DE SANT JOAN DE DÉU.","idRegion":"ES511","phone":"932804000","fax":"932033959","beds":401.0,"type":"MATERNO-INFANTIL","notes":"","agreement":"","lat":"41.60070025","lon":"0.6349327932526239"},
{"codCNH":"310121","name":"HOSPITAL GARCÍA ORCOYEN","idRegion":"ES220","phone":"848435000","fax":"848435003","beds":93.0,"type":"GENERAL","notes":"","agreement":"NO","lat":"42.6833382","lon":"-2.038908569819049"},
{"codCNH":"290382","name":"HOSPITEN ESTEPONA","idRegion":"ES617","phone":"952760600","fax":"952808546","beds":74.0,"type":"GENERAL","notes":"","agreement":"NO","lat":"36.4528445","lon":"-5.084240206546877"},
{"codCNH":"290450","name":"CENYT HOSPITAL","idRegion":"ES617","phone":"952808100","fax":"","beds":10.0,"type":"GENERAL","notes":"","agreement":"NO","lat":"36.42808370000001","lon":"-5.1384924000000005"},
{"codCNH":"150130","name":"COMPLEXO HOSPITALARIO UNIVERSITARIO DE FERROL","idRegion":"ES111","phone":"981334000","fax":"981334015","beds":457.0,"type":"GENERAL","notes":"","agreement":"NO","lat":"","lon":""},
{"codCNH":"150177","name":"HOSPITAL JUAN CARDONA","idRegion":"ES111","phone":"981312500","fax":"981326604","beds":150.0,"type":"GENERAL","notes":"","agreement":"SI","lat":"41.9142758","lon":"1.68133"},
{"codCNH":"150145","name":"HOSPITAL UNIVERSITARIO ARQUITECTO MARCIDE","idRegion":"ES111","phone":"981334000","fax":"981334015","beds":0.0,"type":"GENERAL","notes":"","agreement":"NO","lat":"","lon":""},
{"codCNH":"150183","name":"HOSPITAL NAVAL","idRegion":"ES111","phone":"981339759","fax":"","beds":0.0,"type":"GENERAL","notes":"","agreement":"NO","lat":"","lon":""},
{"codCNH":"170123","name":"HOSPITAL DE FIGUERES","idRegion":"ES512","phone":"972501400","fax":"972670313","beds":168.0,"type":"GENERAL","notes":"","agreement":"","lat":"42.26832159999999","lon":"2.9537614147690485"},
{"codCNH":"170288","name":"CENTRE SOCIOSANITARI BERNAT JAUME","idRegion":"ES512","phone":"972501400","fax":"","beds":121.0,"type":"GERIATRÍA Y/O LARGA ESTANCIA","notes":"","agreement":"NO","lat":"","lon":""},
{"codCNH":"170139","name":"CLÍNICA SANTA CREU","idRegion":"ES512","phone":"972503650","fax":"972503931","beds":35.0,"type":"GENERAL","notes":"","agreement":"NO","lat":"42.2619527","lon":"2.9618175274798686"},
{"codCNH":"70366","name":"HOSPITAL DE FORMENTERA","idRegion":"ES531","phone":"971321212","fax":"971321280","beds":12.0,"type":"GENERAL","notes":"","agreement":"NO","lat":"38.706390899999995","lon":"1.4335265588311945"},
{"codCNH":"220105","name":"CENTRO SANITARIO BAJO CINCA-BAIX CINCA","idRegion":"ES241","phone":"974474545","fax":"974471065","beds":20.0,"type":"OTRA FINALIDAD","notes":"","agreement":"NO","lat":"41.52425085","lon":"0.3405564347291085"},
{"codCNH":"281146","name":"HOSPITAL UNIVERSITARIO DE FUENLABRADA","idRegion":"ES300","phone":"916006000","fax":"916006701","beds":406.0,"type":"GENERAL","notes":"","agreement":"NO","lat":"40.287079799999994","lon":"-3.8159212878634223"},
{"codCNH":"480209","name":"HOSPITAL GALDAKAO-USANSOLO","idRegion":"ES213","phone":"944007000","fax":"944007132","beds":464.0,"type":"GENERAL","notes":"","agreement":"NO","lat":"43.2185696","lon":"-2.818861"},
{"codCNH":"460207","name":"HOSPITAL FRANCESC DE BORJA DE GANDIA","idRegion":"ES523","phone":"962849500","fax":"962849506","beds":285.0,"type":"GENERAL","notes":"","agreement":"NO","lat":"","lon":""},
{"codCNH":"460327","name":"CENTRO MÉDICO GANDIA","idRegion":"ES523","phone":"962874740","fax":"962950215","beds":11.0,"type":"GENERAL","notes":"","agreement":"NO","lat":"38.972941799999994","lon":"-0.17583210000000002"},
{"codCNH":"280989","name":"HOSPITAL UNIVERSITARIO DE GETAFE","idRegion":"ES300","phone":"916839360","fax":"916839748","beds":510.0,"type":"GENERAL","notes":"","agreement":"NO","lat":"40.31262275","lon":"-3.7426444321533783"},
{"codCNH":"330169","name":"HOSPITAL DE LA CRUZ ROJA","idRegion":"ES120","phone":"985195000","fax":"985133195","beds":120.0,"type":"MÉDICO-QUIRÚRGICO","notes":"","agreement":"SI","lat":"36.843913","lon":"-2.452113724152164"},
{"codCNH":"330175","name":"SANATORIO NUESTRA SEÑORA DE COVADONGA","idRegion":"ES120","phone":"985365122","fax":"985130758","beds":24.0,"type":"MÉDICO-QUIRÚRGICO","notes":"","agreement":"NO","lat":"","lon":""},
{"codCNH":"330194","name":"FUNDACIÓN HOSPITAL DE JOVE","idRegion":"ES120","phone":"985320308","fax":"985315710","beds":233.0,"type":"GENERAL","notes":"","agreement":"SI","lat":"","lon":""},
{"codCNH":"330332","name":"CLÍNICA PSIQUIÁTRICA SOMIÓ","idRegion":"ES120","phone":"985133806","fax":"985132278","beds":40.0,"type":"PSIQUIÁTRICO","notes":"","agreement":"NO","lat":"43.5458518","lon":"-5.610151999999999"},
{"codCNH":"330208","name":"HOSPITAL BEGOÑA DE GIJÓN, S.L.","idRegion":"ES120","phone":"985367711","fax":"985365385","beds":41.0,"type":"GENERAL","notes":"","agreement":"NO","lat":"","lon":""},
{"codCNH":"330156","name":"HOSPITAL DE CABUEÑES","idRegion":"ES120","phone":"985185000","fax":"985367169","beds":457.0,"type":"GENERAL","notes":"","agreement":"NO","lat":"43.5248797","lon":"-5.606460980710727"},
{"codCNH":"330354","name":"HOSPITAL GIJÓN","idRegion":"ES120","phone":"985360612","fax":"984840128","beds":32.0,"type":"GERIATRÍA Y/O LARGA ESTANCIA","notes":"","agreement":"NO","lat":"43.5450394","lon":"-5.6626443"},
{"codCNH":"330365","name":"CENTRO TERAPÉUTICO VISTA ALEGRE","idRegion":"ES120","phone":"985363435","fax":"985772566","beds":28.0,"type":"PSIQUIÁTRICO","notes":"","agreement":"NO","lat":"","lon":""},
{"codCNH":"460180","name":"CASA DE REPOSO SAN ONOFRE","idRegion":"ES523","phone":"963638036","fax":"963639972","beds":76.0,"type":"PSIQUIÁTRICO","notes":"","agreement":"NO","lat":"","lon":""},
{"codCNH":"480216","name":"HOSPITAL GORLIZ","idRegion":"ES213","phone":"944006600","fax":"944006627","beds":149.0,"type":"REHABILITACIÓN PSICOFÍSICA","notes":"","agreement":"NO","lat":"43.4139073","lon":"-2.9351773999999997"},
{"codCNH":"81402","name":"MÚTUA DE GRANOLLERS, MÚTUA DE PREVISIÓ SOCIAL A PRIMA FIXA","idRegion":"ES511","phone":"938708099","fax":"938790477","beds":20.0,"type":"GENERAL","notes":"","agreement":"NO","lat":"","lon":""},
{"codCNH":"80734","name":"HOSPITAL GENERAL DE GRANOLLERS.","idRegion":"ES511","phone":"938425000","fax":"938425017","beds":306.0,"type":"GENERAL","notes":"","agreement":"","lat":"","lon":""},
{"codCNH":"81661","name":"BENITO MENNI COMPLEX ASSISTENCIAL EN SALUT MENTAL","idRegion":"ES511","phone":"938425035","fax":"","beds":30.0,"type":"PSIQUIÁTRICO","notes":"","agreement":"NO","lat":"","lon":""},
{"codCNH":"281326","name":"CASTA GUADARRAMA","idRegion":"ES300","phone":"918548328","fax":"918540686","beds":160.0,"type":"PSIQUIÁTRICO","notes":"","agreement":"SI","lat":"","lon":""},
{"codCNH":"280800","name":"HOSPITAL GUADARRAMA","idRegion":"ES300","phone":"918562000","fax":"918562057","beds":144.0,"type":"GERIATRÍA Y/O LARGA ESTANCIA","notes":"","agreement":"NO","lat":"40.6734454","lon":"-4.0893911"},
{"codCNH":"180122","name":"HOSPITAL DE ALTA RESOLUCIÓN DE GUADIX","idRegion":"ES614","phone":"958699153","fax":"958699002","beds":50.0,"type":"GENERAL","notes":"","agreement":"NO","lat":"37.309948950000006","lon":"-3.1455987186081757"},
{"codCNH":"260121","name":"CENTRO SOCIOSANITARIO DE CONVALECENCIA LOS JAZMINES","idRegion":"ES230","phone":"941303650","fax":"941304485","beds":26.0,"type":"GERIATRÍA Y/O LARGA ESTANCIA","notes":"","agreement":"SI","lat":"","lon":""},
{"codCNH":"20096","name":"HOSPITAL DE HELLÍN","idRegion":"ES421","phone":"967309500","fax":"967304611","beds":135.0,"type":"GENERAL","notes":"","agreement":"NO","lat":"38.5043124","lon":"-1.6891100655697582"},
{"codCNH":"200163","name":"ORGANIZACIÓN SANITARIA INTEGRADA BIDASOA (OSI BIDASOA)","idRegion":"ES212","phone":"943007702","fax":"943007701","beds":101.0,"type":"GENERAL","notes":"","agreement":"NO","lat":"","lon":""},
{"codCNH":"81739","name":"CENTRE SOCIOSANITARI DE L'HOSPITALET - CONSORCI SANITARI INTEGRAL","idRegion":"ES511","phone":"934407500","fax":"933334543","beds":123.0,"type":"GERIATRÍA Y/O LARGA ESTANCIA","notes":"","agreement":"NO","lat":"","lon":""},
{"codCNH":"81605","name":"PRYTANIS HOSPITALET CENTRE SOCIOSANITARI","idRegion":"ES511","phone":"932988090","fax":"","beds":104.0,"type":"GERIATRÍA Y/O LARGA ESTANCIA","notes":"","agreement":"NO","lat":"","lon":""},
{"codCNH":"82112","name":"UNITAT POLIVALENT BENITO MENNI EN SALUT MENTAL DE L'HOSPITALET-EL PRAT DE LLOBREGAT","idRegion":"ES511","phone":"936402400","fax":"","beds":35.0,"type":"PSIQUIÁTRICO","notes":"","agreement":"NO","lat":"","lon":""},
{"codCNH":"81461","name":"INSTITUT CATALÀ D'ONCOLOGIA - HOSPITAL DURAN I REYNALS","idRegion":"ES511","phone":"933357011","fax":"932607783","beds":126.0,"type":"ONCOLÓGICO","notes":"","agreement":"","lat":"","lon":""},
{"codCNH":"80771","name":"HOSPITAL GENERAL DE L'HOSPITALET","idRegion":"ES511","phone":"934407500","fax":"933334543","beds":89.0,"type":"GENERAL","notes":"","agreement":"","lat":"41.3741708","lon":"2.1069438559651767"},
{"codCNH":"80752","name":"HOSPITAL UNIVERSITARI DE BELLVITGE","idRegion":"ES511","phone":"933357011","fax":"932607533","beds":1022.0,"type":"GENERAL","notes":"","agreement":"","lat":"41.34536095","lon":"2.104785907668183"},
{"codCNH":"80543","name":"HESTIA DURAN I REYNALS","idRegion":"ES511","phone":"934170400","fax":"934183356","beds":428.0,"type":"GERIATRÍA Y/O LARGA ESTANCIA","notes":"","agreement":"NO","lat":"","lon":""},
{"codCNH":"40084","name":"HOSPITAL LA INMACULADA","idRegion":"ES611","phone":"950029176","fax":"950451040","beds":184.0,"type":"GENERAL","notes":"","agreement":"NO","lat":"37.4013429","lon":"-1.9418865490704171"},
{"codCNH":"380197","name":"HOSPITAL DE LA SANTÍSIMA TRINIDAD","idRegion":"ES709","phone":"922604510","fax":"922321456","beds":99.0,"type":"GERIATRÍA Y/O LARGA ESTANCIA","notes":"","agreement":"SI","lat":"28.3872688","lon":"-16.5260112"},
{"codCNH":"380337","name":"HOSPITAL DEL NORTE","idRegion":"","phone":"822171471","fax":"922653808","beds":0.0,"type":"GERIATRÍA Y/O LARGA ESTANCIA","notes":"","agreement":"NO","lat":"","lon":""},
{"codCNH":"80787","name":"FUNDACIÓ SANITÀRIA SANT JOSEP","idRegion":"ES511","phone":"938032650","fax":"938051586","beds":145.0,"type":"GERIATRÍA Y/O LARGA ESTANCIA","notes":"","agreement":"NO","lat":"","lon":""},
{"codCNH":"81885","name":"HOSPITAL D'IGUALADA","idRegion":"ES511","phone":"938075500","fax":"938036915","beds":280.0,"type":"GENERAL","notes":"","agreement":"","lat":"41.4905905","lon":"1.7076074120503757"},
{"codCNH":"70377","name":"HOSPITAL COMARCAL D'INCA","idRegion":"ES532","phone":"971888514","fax":"971888584","beds":165.0,"type":"GENERAL","notes":"","agreement":"NO","lat":"39.71593935","lon":"2.9220721596410035"},
{"codCNH":"220089","name":"HOSPITAL DE JACA.SALUD","idRegion":"ES241","phone":"974355331","fax":"974364142","beds":50.0,"type":"GENERAL","notes":"","agreement":"NO","lat":"","lon":""},
{"codCNH":"110271","name":"CLÍNICA SERMAN - INSTITUTO MÉDICO","idRegion":"ES612","phone":"956301211","fax":"956317759","beds":41.0,"type":"GENERAL","notes":"","agreement":"SI","lat":"","lon":""},
{"codCNH":"110125","name":"HOSPITAL SAN JUAN GRANDE","idRegion":"ES612","phone":"956357300","fax":"956184802","beds":143.0,"type":"GENERAL","notes":"","agreement":"SI","lat":"36.69151574999999","lon":"-6.149739848779506"},
{"codCNH":"110239","name":"HOSPITAL JEREZ PUERTA DEL SUR","idRegion":"ES612","phone":"956357100","fax":"956357170","beds":98.0,"type":"GENERAL","notes":"","agreement":"NO","lat":"36.66943055","lon":"-6.13978982513441"},
{"codCNH":"110110","name":"HOSPITAL UNIVERSITARIO DE JEREZ DE LA FRONTERA","idRegion":"ES612","phone":"956032075","fax":"956032239","beds":498.0,"type":"GENERAL","notes":"","agreement":"NO","lat":"","lon":""},
{"codCNH":"110103","name":"CLÍNICA  LOS ÁLAMOS","idRegion":"ES612","phone":"956182244","fax":"956308811","beds":15.0,"type":"GENERAL","notes":"","agreement":"NO","lat":"36.70414005","lon":"-6.130589137056326"},
{"codCNH":"250221","name":"REEIXIR","idRegion":"ES513","phone":"973269543","fax":"","beds":44.0,"type":"PSIQUIÁTRICO","notes":"","agreement":"NO","lat":"","lon":""},
{"codCNH":"10088","name":"HOSPITAL DE LEZA","idRegion":"ES211","phone":"945006900","fax":"945006901","beds":63.0,"type":"GENERAL","notes":"","agreement":"NO","lat":"42.57573050000001","lon":"-2.638496358062934"},
{"codCNH":"330254","name":"FUNDACIÓN SANATORIO ADARO","idRegion":"ES120","phone":"985681754","fax":"985692151","beds":138.0,"type":"GERIATRÍA Y/O LARGA ESTANCIA","notes":"","agreement":"SI","lat":"43.292263","lon":"-5.675017829314496"},
{"codCNH":"330241","name":"HOSPITAL VALLE DEL NALÓN","idRegion":"ES120","phone":"985652000","fax":"985652006","beds":223.0,"type":"GENERAL","notes":"","agreement":"NO","lat":"","lon":""},
{"codCNH":"260109","name":"CLÍNICA LOS MANZANOS","idRegion":"ES230","phone":"941499490","fax":"941499491","beds":52.0,"type":"MÉDICO-QUIRÚRGICO","notes":"","agreement":"SI","lat":"42.43762485","lon":"-2.448216315871017"},
{"codCNH":"390134","name":"HOSPITAL COMARCAL DE LAREDO","idRegion":"ES130","phone":"942638500","fax":"942607876","beds":131.0,"type":"GENERAL","notes":"","agreement":"NO","lat":"43.41384340000001","lon":"-3.441714544189232"},
{"codCNH":"410454","name":"HOSPITAL DE ALTA RESOLUCIÓN DE LEBRIJA","idRegion":"ES618","phone":"","fax":"","beds":22.0,"type":"GENERAL","notes":"","agreement":"NO","lat":"36.91037325","lon":"-6.072711421288671"},
{"codCNH":"280838","name":"HOSPITAL UNIVERSITARIO SEVERO OCHOA","idRegion":"ES300","phone":"914818000","fax":"916940717","beds":386.0,"type":"GENERAL","notes":"","agreement":"NO","lat":"","lon":""},
{"codCNH":"280843","name":"INSTITUTO PSIQUIÁTRICO SERVICIOS DE SALUD MENTAL JOSÉ GERMAIN-1 LUNA","idRegion":"ES300","phone":"915866767","fax":"915866543","beds":0.0,"type":"PSIQUIÁTRICO","notes":"","agreement":"NO","lat":"","lon":""},
{"codCNH":"281427","name":"INSTITUTO PSIQUIÁTRICO SERVICIOS DE SALUD MENTAL JOSÉ GERMAIN","idRegion":"ES300","phone":"915866767","fax":"915866543","beds":178.0,"type":"PSIQUIÁTRICO","notes":"","agreement":"NO","lat":"","lon":""},
{"codCNH":"281438","name":"INSTITUTO PSIQUIÁTRICO SERVICIOS DE SALUD MENTAL JOSÉ GERMAIN-2 ARAGÓN","idRegion":"ES300","phone":"915866767","fax":"915866543","beds":0.0,"type":"PSIQUIÁTRICO","notes":"","agreement":"NO","lat":"","lon":""},
{"codCNH":"210148","name":"HOSPITAL VIRGEN DE LA BELLA","idRegion":"ES615","phone":"649902722","fax":"959012125","beds":61.0,"type":"GENERAL","notes":"","agreement":"NO","lat":"37.26043","lon":"-7.194206231089932"},
{"codCNH":"230079","name":"HOSPITAL SAN AGUSTÍN","idRegion":"ES616","phone":"953024200","fax":"953024315","beds":204.0,"type":"GENERAL","notes":"","agreement":"NO","lat":"43.551953000000005","lon":"-5.9357555"},
{"codCNH":"110316","name":"HOSPITAL DE LA LÍNEA DE LA CONCEPCIÓN","idRegion":"ES612","phone":"956026500","fax":"956026563","beds":243.0,"type":"GENERAL","notes":"","agreement":"NO","lat":"36.167789899999995","lon":"-5.348239599999999"},
{"codCNH":"330321","name":"INSTITUTO SALUD MENTAL PÉREZ-ESPINOSA ORIA, S.L.","idRegion":"ES120","phone":"985771677","fax":"985772566","beds":42.0,"type":"PSIQUIÁTRICO","notes":"","agreement":"NO","lat":"","lon":""},
{"codCNH":"250232","name":"HOSPITAL SANT JOAN DE DÉU LLEIDA","idRegion":"ES513","phone":"973740010","fax":"","beds":130.0,"type":"PSIQUIÁTRICO","notes":"","agreement":"NO","lat":"41.6005176","lon":"0.6351647"},
{"codCNH":"60114","name":"HOSPITAL GENERAL DE LLERENA","idRegion":"ES431","phone":"924877000","fax":"924870926","beds":0.0,"type":"GENERAL","notes":"","agreement":"NO","lat":"38.2427771","lon":"-6.0131725"},
{"codCNH":"60219","name":"COMPLEJO HOSPITALARIO LLERENA-ZAFRA","idRegion":"ES431","phone":"924877000","fax":"924870926","beds":227.0,"type":"GENERAL","notes":"","agreement":"NO","lat":"","lon":""},
{"codCNH":"460392","name":"HOSPITAL DE LLÍRIA","idRegion":"ES523","phone":"962718800","fax":"","beds":90.0,"type":"GENERAL","notes":"","agreement":"NO","lat":"39.6411595","lon":"-0.6191600361769081"},
{"codCNH":"170160","name":"HOSPITAL SOCIOSANITARI DE LLORET DE MAR","idRegion":"ES512","phone":"972364736","fax":"972372602","beds":63.0,"type":"GERIATRÍA Y/O LARGA ESTANCIA","notes":"","agreement":"NO","lat":"","lon":""},
{"codCNH":"70423","name":"HOSPITAL CLINIC BALEAR","idRegion":"ES532","phone":"971443030","fax":"971440431","beds":34.0,"type":"GENERAL","notes":"","agreement":"NO","lat":"39.49051470000001","lon":"2.7404978245327083"},
{"codCNH":"180133","name":"HOSPITAL DE ALTA RESOLUCIÓN DE LOJA","idRegion":"ES614","phone":"958338100","fax":"958338197","beds":22.0,"type":"GENERAL","notes":"","agreement":"NO","lat":"","lon":""},
{"codCNH":"300217","name":"HOSPITAL VIRGEN DEL ALCÁZAR DE LORCA","idRegion":"ES620","phone":"968468600","fax":"968468612","beds":175.0,"type":"GERIATRÍA Y/O LARGA ESTANCIA","notes":"","agreement":"SI","lat":"37.66962305","lon":"-1.6959193093937857"},
{"codCNH":"300256","name":"HOSPITAL RAFAEL MÉNDEZ","idRegion":"ES620","phone":"968445500","fax":"968442421","beds":287.0,"type":"GENERAL","notes":"","agreement":"NO","lat":"","lon":""},
{"codCNH":"280856","name":"FREMAP HOSPITAL Y CENTRO DE REHABILITACIÓN DE MAJADAHONDA","idRegion":"ES300","phone":"916265642","fax":"916392607","beds":116.0,"type":"TRAUMATOLOGÍA Y/O REHABILITACIÓN","notes":"","agreement":"NO","lat":"","lon":""},
{"codCNH":"281315","name":"HOSPITAL UNIVERSITARIO PUERTA DE HIERRO MAJADAHONDA","idRegion":"ES300","phone":"911916000","fax":"913734661","beds":613.0,"type":"GENERAL","notes":"","agreement":"NO","lat":"40.45025765","lon":"-3.8737240820829295"},
{"codCNH":"70309","name":"HOSPITAL MANACOR","idRegion":"ES532","phone":"971847000","fax":"971847010","beds":224.0,"type":"GENERAL","notes":"","agreement":"NO","lat":"39.5780492","lon":"3.2085141"},
{"codCNH":"70412","name":"HOSPITAL DE LLEVANT","idRegion":"ES532","phone":"971822400","fax":"971822020","beds":70.0,"type":"GENERAL","notes":"","agreement":"NO","lat":"39.5452354","lon":"3.3297905718902605"},
{"codCNH":"460370","name":"HOSPITAL DE MANISES","idRegion":"ES523","phone":"961845000","fax":"961849182","beds":354.0,"type":"GENERAL","notes":"Concesión Administrativa a Entidad Privada","agreement":"NO","lat":"39.485581599999996","lon":"-0.4529130852357861"},
{"codCNH":"80826","name":"HOSPITAL  DE  SANT  JAUME","idRegion":"ES511","phone":"938506565","fax":"938507196","beds":90.0,"type":"GERIATRÍA Y/O LARGA ESTANCIA","notes":"","agreement":"NO","lat":"42.1872302","lon":"2.0242654013144588"},
{"codCNH":"80863","name":"HOSPITAL DE SANT JOAN DE DÉU (MANRESA)","idRegion":"ES511","phone":"938732550","fax":"938724931","beds":280.0,"type":"GENERAL","notes":"","agreement":"","lat":"","lon":""},
{"codCNH":"80832","name":"CLÍNICA SANT JOSEP","idRegion":"ES511","phone":"938744050","fax":"938741254","beds":95.0,"type":"GENERAL","notes":"","agreement":"NO","lat":"41.72265295","lon":"1.8323943362254929"},
{"codCNH":"80850","name":"CENTRE HOSPITALARI.","idRegion":"ES511","phone":"938732550","fax":"938741004","beds":309.0,"type":"GENERAL","notes":"","agreement":"","lat":"41.735448999999996","lon":"1.8251179"},
{"codCNH":"80879","name":"HOSPITAL DE SANT ANDREU","idRegion":"ES511","phone":"938743312","fax":"938731504","beds":191.0,"type":"GERIATRÍA Y/O LARGA ESTANCIA","notes":"","agreement":"NO","lat":"41.43662929999999","lon":"2.1911382"},
{"codCNH":"130065","name":"HOSPITAL VIRGEN DE ALTAGRACIA","idRegion":"ES422","phone":"926646000","fax":"926614408","beds":118.0,"type":"GENERAL","notes":"","agreement":"NO","lat":"38.9992939","lon":"-3.3617246907632325"},
{"codCNH":"70388","name":"HOSPITAL MATEU ORFILA","idRegion":"ES533","phone":"971487000","fax":"971487011","beds":142.0,"type":"GENERAL","notes":"","agreement":"NO","lat":"39.8827967","lon":"4.2527682"},
{"codCNH":"70295","name":"CLINICA JUANEDA MAHON","idRegion":"ES533","phone":"971351115","fax":"971369163","beds":18.0,"type":"GENERAL","notes":"","agreement":"NO","lat":"39.8864376","lon":"4.2557953"},
{"codCNH":"290472","name":"CENTRO DE REPRODUCCIÓN ASISTIDA DE MARBELLA (CERAM)","idRegion":"ES617","phone":"952829035","fax":"952773256","beds":22.0,"type":"GENERAL","notes":"","agreement":"NO","lat":"","lon":""},
{"codCNH":"290494","name":"HELICÓPTEROS SANITARIOS HOSPITAL","idRegion":"ES617","phone":"952816767","fax":"","beds":10.0,"type":"GENERAL","notes":"","agreement":"NO","lat":"","lon":""},
{"codCNH":"290461","name":"CLÍNICA OCHOA","idRegion":"ES617","phone":"952861400","fax":"952860888","beds":12.0,"type":"GENERAL","notes":"","agreement":"NO","lat":"","lon":""},
{"codCNH":"290287","name":"HOSPITAL COSTA DEL SOL","idRegion":"ES617","phone":"952828250","fax":"952823219","beds":408.0,"type":"GENERAL","notes":"Empresa Pública","agreement":"NO","lat":"","lon":""},
{"codCNH":"290359","name":"HC MARBELLA INTERNATIONAL HOSPITAL","idRegion":"ES617","phone":"952908628","fax":"952908749","beds":12.0,"type":"GENERAL","notes":"","agreement":"NO","lat":"36.485409000000004","lon":"-4.9705322999999995"},
{"codCNH":"290173","name":"HOSPITAL QUIRONSALUD MARBELLA","idRegion":"ES617","phone":"952774200","fax":"951913041","beds":75.0,"type":"GENERAL","notes":"","agreement":"NO","lat":"36.50859215","lon":"-4.874189481982891"},
{"codCNH":"80885","name":"GERMANES HOSPITALÀRIES. HOSPITAL SAGRAT COR","idRegion":"ES511","phone":"937752200","fax":"937751994","beds":488.0,"type":"PSIQUIÁTRICO","notes":"","agreement":"NO","lat":"","lon":""},
{"codCNH":"80898","name":"FUNDACIÓ HOSPITAL SANT JOAN DE DÉU","idRegion":"ES511","phone":"937742020","fax":"937753706","beds":112.0,"type":"GENERAL","notes":"","agreement":"","lat":"","lon":""},
{"codCNH":"81997","name":"CQM CLÍNIC MARESME, SL","idRegion":"ES511","phone":"937556219","fax":"937904496","beds":10.0,"type":"GENERAL","notes":"","agreement":"NO","lat":"","lon":""},
{"codCNH":"81580","name":"ANTIC HOSPITAL DE SANT JAUME I SANTA MAGDALENA","idRegion":"ES511","phone":"937582800","fax":"937582813","beds":70.0,"type":"GERIATRÍA Y/O LARGA ESTANCIA","notes":"","agreement":"NO","lat":"","lon":""},
{"codCNH":"81326","name":"HOSPITAL DE MATARÓ","idRegion":"ES511","phone":"937417700","fax":"937417733","beds":402.0,"type":"GENERAL","notes":"","agreement":"","lat":"41.5557719","lon":"2.4303600745236045"},
{"codCNH":"81213","name":"HESTIA MARESME","idRegion":"ES511","phone":"931165279","fax":"937577251","beds":125.0,"type":"GERIATRÍA Y/O LARGA ESTANCIA","notes":"","agreement":"NO","lat":"","lon":""},
{"codCNH":"470091","name":"HOSPITAL MEDINA DEL CAMPO","idRegion":"ES418","phone":"983838000","fax":"983838007","beds":119.0,"type":"GENERAL","notes":"","agreement":"NO","lat":"41.308549600000006","lon":"-4.915025599999999"},
{"codCNH":"200258","name":"HOSPITAL DE MENDARO","idRegion":"ES212","phone":"943032800","fax":"943032888","beds":119.0,"type":"GENERAL","notes":"","agreement":"NO","lat":"43.252500399999995","lon":"-2.3858392000000004"},
{"codCNH":"60129","name":"HOSPITAL DE MÉRIDA","idRegion":"ES431","phone":"924381000","fax":"924381012","beds":0.0,"type":"GENERAL","notes":"","agreement":"NO","lat":"38.912235100000004","lon":"-6.3635321"},
{"codCNH":"60275","name":"CASAVERDE. CENTRO DE REHABILITACIÓN NEUROLÓGICO DE EXTREMADURA","idRegion":"ES431","phone":"924380330","fax":"924577213","beds":100.0,"type":"REHABILITACIÓN PSICOFÍSICA","notes":"","agreement":"SI","lat":"","lon":""},
{"codCNH":"60264","name":"COMPLEJO HOSPITALARIO DEL ÁREA DE SALUD DE MÉRIDA","idRegion":"ES431","phone":"924381000","fax":"924381012","beds":381.0,"type":"GENERAL","notes":"","agreement":"NO","lat":"","lon":""},
{"codCNH":"60135","name":"CENTRO SOCIOSANITARIO DE MÉRIDA","idRegion":"ES431","phone":"924388081","fax":"924388083","beds":270.0,"type":"PSIQUIÁTRICO","notes":"D. Funcional: SEPAD (Ente Público adscrito a la Consejería de Sanidad y Dependencia).","agreement":"NO","lat":"","lon":""},
{"codCNH":"330267","name":"HOSPITAL V. ÁLVAREZ BUYLLA","idRegion":"ES120","phone":"985458500","fax":"985458509","beds":176.0,"type":"GENERAL","notes":"","agreement":"NO","lat":"43.226445","lon":"-5.781431708362348"},
{"codCNH":"210097","name":"HOSPITAL DE RIOTINTO","idRegion":"ES615","phone":"959025295","fax":"959025297","beds":118.0,"type":"GENERAL","notes":"","agreement":"NO","lat":"37.69335615","lon":"-6.5978415483963015"},
{"codCNH":"90098","name":"HOSPITAL SANTIAGO APÓSTOL","idRegion":"ES412","phone":"947349000","fax":"947349014","beds":114.0,"type":"GENERAL","notes":"","agreement":"NO","lat":"40.07658065","lon":"-2.1374422855056308"},
{"codCNH":"460381","name":"HOSPITAL DE CRÓNICOS DE MISLATA (ANTIGUO HOSPITAL MILITAR DE VALENCIA)","idRegion":"ES523","phone":"963874693","fax":"963874699","beds":115.0,"type":"GERIATRÍA Y/O LARGA ESTANCIA","notes":"Concesión Administrativa a Entidad Privada","agreement":"NO","lat":"","lon":""},
{"codCNH":"300294","name":"HOSPITAL DE MOLINA","idRegion":"ES620","phone":"968644030","fax":"968644272","beds":83.0,"type":"MÉDICO-QUIRÚRGICO","notes":"","agreement":"SI","lat":"38.059800200000005","lon":"-1.2148774033825962"},
{"codCNH":"80930","name":"CENTRE MÈDIC MOLINS, SL","idRegion":"ES511","phone":"936680004","fax":"937721570","beds":177.0,"type":"GERIATRÍA Y/O LARGA ESTANCIA","notes":"","agreement":"NO","lat":"","lon":""},
{"codCNH":"81841","name":"PARC SANITARI SANT JOAN DE DÉU - TIL·LERS","idRegion":"ES511","phone":"935705289","fax":"935702648","beds":10.0,"type":"PSIQUIÁTRICO","notes":"","agreement":"NO","lat":"","lon":""},
{"codCNH":"82178","name":"HOSPITAL SOCIOSANITARI DE MOLLET","idRegion":"ES511","phone":"935760300","fax":"935760320","beds":109.0,"type":"GERIATRÍA Y/O LARGA ESTANCIA","notes":"","agreement":"NO","lat":"41.5411558","lon":"2.2110180592381794"},
{"codCNH":"80945","name":"HOSPITAL DE MOLLET","idRegion":"ES511","phone":"935760300","fax":"935760306","beds":164.0,"type":"GENERAL","notes":"","agreement":"","lat":"","lon":""},
{"codCNH":"270109","name":"HOSPITAL DE MONFORTE (*)","idRegion":"ES112","phone":"982417900","fax":"982404006","beds":140.0,"type":"GENERAL","notes":"RM compartida (3 unidades móviles RM)","agreement":"NO","lat":"","lon":""},
{"codCNH":"140195","name":"HOSPITAL DE MONTILLA","idRegion":"ES613","phone":"957022600","fax":"957022606","beds":92.0,"type":"GENERAL","notes":"","agreement":"NO","lat":"37.5712787","lon":"-4.640150789467329"},
{"codCNH":"430081","name":"HOSPITAL COMARCAL MÓRA D'EBRE","idRegion":"ES514","phone":"977401863","fax":"977401214","beds":120.0,"type":"GENERAL","notes":"","agreement":"","lat":"","lon":""},
{"codCNH":"410248","name":"HOSPITAL DE ALTA RESOLUCIÓN DE MORÓN DE LA FRONTERA","idRegion":"ES618","phone":"954851008","fax":"954852083","beds":12.0,"type":"GENERAL","notes":"","agreement":"NO","lat":"","lon":""},
{"codCNH":"281360","name":"HM UNIVERSITARIO PUERTA DEL SUR","idRegion":"ES300","phone":"912673100","fax":"912673193","beds":182.0,"type":"GENERAL","notes":"","agreement":"SI","lat":"","lon":""},
{"codCNH":"280894","name":"HOSPITAL UNIVERSITARIO DE MÓSTOLES","idRegion":"ES300","phone":"916648600","fax":"916471917","beds":332.0,"type":"GENERAL","notes":"","agreement":"NO","lat":"40.31575505","lon":"-3.8774710524495086"},
{"codCNH":"281348","name":"HOSPITAL REY JUAN CARLOS","idRegion":"ES300","phone":"914816225","fax":"914816216","beds":364.0,"type":"GENERAL","notes":"","agreement":"NO","lat":"40.5572686","lon":"-5.6718942000000006"},
{"codCNH":"180107","name":"HOSPITAL SANTA ANA","idRegion":"ES614","phone":"958038200","fax":"958038201","beds":187.0,"type":"GENERAL","notes":"","agreement":"NO","lat":"","lon":""},
{"codCNH":"70260","name":"HOSPITAL GENERAL DE MURO","idRegion":"ES533","phone":"971891900","fax":"971892495","beds":85.0,"type":"GENERAL","notes":"","agreement":"SI","lat":"","lon":""},
{"codCNH":"30362","name":"CENTRO DE REHABILITACIÓN NEUROLÓGICA CASAVERDE","idRegion":"ES521","phone":"965950711","fax":"965950865","beds":40.0,"type":"REHABILITACIÓN PSICOFÍSICA","notes":"","agreement":"NO","lat":"","lon":""},
{"codCNH":"281382","name":"HOSPITAL CASAVERDE DE MADRID","idRegion":"ES300","phone":"911609910","fax":"","beds":100.0,"type":"REHABILITACIÓN PSICOFÍSICA","notes":"","agreement":"NO","lat":"","lon":""},
{"codCNH":"100054","name":"HOSPITAL CAMPO ARAÑUELO","idRegion":"ES432","phone":"927548900","fax":"927544808","beds":102.0,"type":"GENERAL","notes":"","agreement":"NO","lat":"39.88807645","lon":"-5.561008099208527"},
{"codCNH":"290483","name":"CLÍNICA RINCÓN","idRegion":"ES617","phone":"952965126","fax":"952526102","beds":4.0,"type":"GENERAL","notes":"","agreement":"NO","lat":"36.7471576","lon":"-3.8806526"},
{"codCNH":"250181","name":"CASTELL D'OLIANA RESIDENCIAL,S.L","idRegion":"ES513","phone":"973463030","fax":"973463131","beds":20.0,"type":"PSIQUIÁTRICO","notes":"","agreement":"NO","lat":"","lon":""},
{"codCNH":"170176","name":"HOSPITAL D'OLOT I COMARCAL DE LA GARROTXA","idRegion":"ES512","phone":"972261800","fax":"972269703","beds":137.0,"type":"GENERAL","notes":"","agreement":"","lat":"42.187462200000006","lon":"2.4675162"},
{"codCNH":"460235","name":"HOSPITAL GENERAL DE ONTINYENT","idRegion":"ES523","phone":"962989200","fax":"962989250","beds":56.0,"type":"GENERAL","notes":"","agreement":"NO","lat":"38.82010695","lon":"-0.6031734317191494"},
{"codCNH":"30211","name":"HOSPITAL VEGA BAJA DE ORIHUELA","idRegion":"ES521","phone":"966749000","fax":"966749069","beds":361.0,"type":"GENERAL","notes":"","agreement":"NO","lat":"38.08822855","lon":"-0.8538951886107521"},
{"codCNH":"380201","name":"CLÍNICA VIDA","idRegion":"ES709","phone":"922330550","fax":"922331862","beds":31.0,"type":"GENERAL","notes":"","agreement":"NO","lat":"","lon":""},
{"codCNH":"410251","name":"HOSPITAL LA MERCED","idRegion":"ES618","phone":"955077200","fax":"955077217","beds":225.0,"type":"GENERAL","notes":"","agreement":"NO","lat":"","lon":""},
{"codCNH":"170195","name":"HOSPITAL DE PALAMÓS","idRegion":"ES512","phone":"972600160","fax":"972602437","beds":136.0,"type":"GENERAL","notes":"","agreement":"","lat":"41.852807899999995","lon":"3.13192845170468"},
{"codCNH":"170312","name":"CENTRE PALAMÓS GENT GRAN","idRegion":"ES512","phone":"972600160","fax":"","beds":100.0,"type":"GERIATRÍA Y/O LARGA ESTANCIA","notes":"","agreement":"NO","lat":"41.852410299999995","lon":"3.1232055"},
{"codCNH":"400058","name":"UNIDAD DE REHABILITACIÓN PSIQUIÁTRICA NTRA. SRA. DE LA FUENCISLA","idRegion":"ES416","phone":"921421800","fax":"921420080","beds":56.0,"type":"PSIQUIÁTRICO","notes":"","agreement":"SI","lat":"","lon":""},
{"codCNH":"281304","name":"HOSPITAL UNIVERSITARIO INFANTA CRISTINA","idRegion":"ES300","phone":"911913500","fax":"911913960","beds":188.0,"type":"GENERAL","notes":"","agreement":"NO","lat":"","lon":""},
{"codCNH":"330306","name":"HOSPITAL DEL ORIENTE DE ASTURIAS FRANCISCO GRANDE COVIÁN","idRegion":"ES120","phone":"985840032","fax":"985841550","beds":90.0,"type":"GENERAL","notes":"","agreement":"NO","lat":"","lon":""},
{"codCNH":"140229","name":"HOSPITAL DE ALTA RESOLUCIÓN VALLE DEL GUADIATO","idRegion":"ES613","phone":"957579100","fax":"957579150","beds":17.0,"type":"GENERAL","notes":"","agreement":"NO","lat":"38.308629","lon":"-5.27073139019312"},
{"codCNH":"150308","name":"SANATORIO LA ROBLEDA","idRegion":"ES111","phone":"981585811","fax":"981585860","beds":96.0,"type":"PSIQUIÁTRICO","notes":"","agreement":"SI","lat":"42.92598220000001","lon":"-8.398401498657394"},
{"codCNH":"100067","name":"HOSPITAL VIRGEN DEL PUERTO","idRegion":"ES432","phone":"927428300","fax":"927428324","beds":250.0,"type":"GENERAL","notes":"","agreement":"NO","lat":"40.0490084","lon":"-6.0854108"},
{"codCNH":"100073","name":"HOSPITAL SOCIOSANITARIO DE PLASENCIA","idRegion":"ES432","phone":"927428800","fax":"927421836","beds":330.0,"type":"PSIQUIÁTRICO","notes":"","agreement":"NO","lat":"","lon":""},
{"codCNH":"100106","name":"CLÍNICA SOQUIMEX","idRegion":"ES432","phone":"927418484","fax":"927424059","beds":20.0,"type":"GENERAL","notes":"","agreement":"NO","lat":"","lon":""},
{"codCNH":"360101","name":"INSTITUTO DE NEURO-REHABILITACION QUIRONSALUD PONTEVEDRA","idRegion":"ES114","phone":"986856800","fax":"986864122","beds":30.0,"type":"OTROS MONOGRÁFICOS","notes":"","agreement":"SI","lat":"","lon":""},
{"codCNH":"240212","name":"CLÍNICA PONFERRADA","idRegion":"ES413","phone":"987423732","fax":"987429102","beds":46.0,"type":"GENERAL","notes":"","agreement":"SI","lat":"42.55322035","lon":"-6.611720531067165"},
{"codCNH":"240140","name":"HOSPITAL DE LA REINA","idRegion":"ES413","phone":"987409109","fax":"987411945","beds":72.0,"type":"GENERAL","notes":"","agreement":"SI","lat":"42.54171945","lon":"-6.593374974886434"},
{"codCNH":"240135","name":"HOSPITAL EL BIERZO","idRegion":"ES413","phone":"987455200","fax":"987455300","beds":408.0,"type":"GENERAL","notes":"","agreement":"NO","lat":"42.57232105","lon":"-6.643670075045847"},
{"codCNH":"140121","name":"HOSPITAL VALLE DE LOS PEDROCHES","idRegion":"ES613","phone":"957026306","fax":"957026427","beds":124.0,"type":"GENERAL","notes":"","agreement":"NO","lat":"38.586423499999995","lon":"-4.724792"},
{"codCNH":"281203","name":"HOSPITAL QUIRÓNSALUD MADRID","idRegion":"ES300","phone":"902151016","fax":"915183232","beds":239.0,"type":"GENERAL","notes":"","agreement":"SI","lat":"40.5997077","lon":"-3.7134805"},
{"codCNH":"230162","name":"HOSPITAL DE ALTA RESOLUCIÓN SIERRA DE SEGURA","idRegion":"ES616","phone":"953499012","fax":"953499162","beds":24.0,"type":"GENERAL","notes":"","agreement":"NO","lat":"38.3602509","lon":"-2.7873429821500753"},
{"codCNH":"140218","name":"HOSPITAL DE ALTA RESOLUCIÓN DE PUENTE GENIL","idRegion":"ES613","phone":"957615000","fax":"957615060","beds":24.0,"type":"GENERAL","notes":"","agreement":"NO","lat":"","lon":""},
{"codCNH":"380223","name":"HOSPITAL BELLEVUE","idRegion":"ES709","phone":"922368822","fax":"922370312","beds":195.0,"type":"GENERAL","notes":"","agreement":"SI","lat":"","lon":""},
{"codCNH":"110162","name":"HOSPITAL GENERAL SANTA MARÍA DEL PUERTO","idRegion":"ES612","phone":"956017000","fax":"956017084","beds":238.0,"type":"GENERAL","notes":"","agreement":"NO","lat":"","lon":""},
{"codCNH":"350389","name":"CLÍNICA PARQUE FUERTEVENTURA","idRegion":"ES704","phone":"928851500","fax":"928532113","beds":12.0,"type":"MÉDICO-QUIRÚRGICO","notes":"","agreement":"NO","lat":"","lon":""},
{"codCNH":"350252","name":"HOSPITAL GENERAL DE FUERTEVENTURA","idRegion":"ES704","phone":"928862000","fax":"928862137","beds":131.0,"type":"GENERAL","notes":"","agreement":"NO","lat":"","lon":""},
{"codCNH":"110184","name":"HOSPITAL UNIVERSITARIO DE PUERTO REAL","idRegion":"ES612","phone":"956005147","fax":"956005658","beds":319.0,"type":"GENERAL","notes":"","agreement":"NO","lat":"","lon":""},
{"codCNH":"130071","name":"HOSPITAL SANTA BÁRBARA","idRegion":"ES422","phone":"926421100","fax":"926415659","beds":141.0,"type":"GENERAL","notes":"","agreement":"NO","lat":"41.77195705","lon":"-2.471252159575303"},
{"codCNH":"170277","name":"CENTRE SOCIOSANITARI DE PUIGCERDÀ","idRegion":"ES512","phone":"972880150","fax":"972881143","beds":52.0,"type":"GERIATRÍA Y/O LARGA ESTANCIA","notes":"","agreement":"NO","lat":"","lon":""},
{"codCNH":"170334","name":"HOSPITAL DE CERDANYA / HÔPITAL DE CERDAGNE","idRegion":"ES512","phone":"972114090","fax":"","beds":66.0,"type":"GENERAL","notes":"","agreement":"","lat":"","lon":""},
{"codCNH":"81304","name":"RESIDÈNCIA PUIG-REIG","idRegion":"ES511","phone":"938380045","fax":"","beds":30.0,"type":"GERIATRÍA Y/O LARGA ESTANCIA","notes":"","agreement":"NO","lat":"41.97794195","lon":"1.872447803319168"},
{"codCNH":"81483","name":"SAR MONT MARTÍ","idRegion":"ES511","phone":"938290138","fax":"938381306","beds":20.0,"type":"GERIATRÍA Y/O LARGA ESTANCIA","notes":"","agreement":"NO","lat":"","lon":""},
{"codCNH":"460288","name":"HOSPITAL GENERAL DE REQUENA","idRegion":"ES523","phone":"962339180","fax":"962304523","beds":113.0,"type":"GENERAL","notes":"","agreement":"NO","lat":"39.4884539","lon":"-1.0893597323523465"},
{"codCNH":"430249","name":"CENTRE SOCIOSANITARI CIUTAT DE REUS","idRegion":"ES514","phone":"977300021","fax":"977772601","beds":85.0,"type":"GERIATRÍA Y/O LARGA ESTANCIA","notes":"","agreement":"NO","lat":"","lon":""},
{"codCNH":"430094","name":"HOSPITAL UNIVERSITARI DE SANT JOAN DE REUS","idRegion":"ES514","phone":"977310300","fax":"977323690","beds":313.0,"type":"GENERAL","notes":"","agreement":"","lat":"","lon":""},
{"codCNH":"430108","name":"CENTRE MQ REUS","idRegion":"ES514","phone":"977010800","fax":"977317399","beds":50.0,"type":"GENERAL","notes":"","agreement":"","lat":"","lon":""},
{"codCNH":"430115","name":"VILLABLANCA SERVEIS ASSISTENCIALS, SA","idRegion":"ES514","phone":"977390011","fax":"977392363","beds":350.0,"type":"PSIQUIÁTRICO","notes":"","agreement":"NO","lat":"","lon":""},
{"codCNH":"430333","name":"UNITAT DE REFERÈNCIA DE PSIQUIATRIA I TRASTORNS DE LA CONDUCTA ALIMENTÀRIA (URPI)","idRegion":"ES514","phone":"977338565","fax":"","beds":20.0,"type":"PSIQUIÁTRICO","notes":"","agreement":"NO","lat":"","lon":""},
{"codCNH":"430120","name":"INSTITUT PERE MATA, S.A","idRegion":"ES514","phone":"977338565","fax":"977319400","beds":727.0,"type":"PSIQUIÁTRICO","notes":"","agreement":"NO","lat":"","lon":""},
{"codCNH":"150336","name":"HOSPITAL DA BARBANZA (*)","idRegion":"ES111","phone":"981835985","fax":"981835999","beds":81.0,"type":"GENERAL","notes":"RM compartida (3 unidades móviles RM)","agreement":"NO","lat":"42.6952285","lon":"-8.8606126"},
{"codCNH":"290371","name":"CLÍNICA RINCÓN","idRegion":"ES617","phone":"902300107","fax":"902300108","beds":7.0,"type":"OTROS MONOGRÁFICOS","notes":"","agreement":"NO","lat":"36.7471576","lon":"-3.8806526"},
{"codCNH":"82001","name":"SERVEIS SANITARIS LA ROCA DEL VALLES 2","idRegion":"ES511","phone":"932140100","fax":"932140179","beds":34.0,"type":"GENERAL","notes":"","agreement":"NO","lat":"","lon":""},
{"codCNH":"290506","name":"HOSPITAL DE LA SERRANÍA","idRegion":"ES617","phone":"951065077","fax":"951065242","beds":150.0,"type":"GENERAL","notes":"","agreement":"NO","lat":"","lon":""},
{"codCNH":"80958","name":"HOSPITAL DE SABADELL","idRegion":"ES511","phone":"937231010","fax":"937160646","beds":861.0,"type":"GENERAL","notes":"","agreement":"","lat":"41.5572661","lon":"2.109886237395104"},
{"codCNH":"82012","name":"CLÍNICA DEL VALLÈS","idRegion":"ES511","phone":"937283100","fax":"937283146","beds":107.0,"type":"GENERAL","notes":"","agreement":"","lat":"41.532514","lon":"2.1177936"},
{"codCNH":"82236","name":"CENTRE LA CREUETA","idRegion":"ES511","phone":"937451164","fax":"","beds":46.0,"type":"GERIATRÍA Y/O LARGA ESTANCIA","notes":"","agreement":"NO","lat":"41.5503852","lon":"2.1139115"},
{"codCNH":"500172","name":"UNIDAD DE REHABILITACION DE LARGA ESTANCIA","idRegion":"ES243","phone":"976675479","fax":"976675454","beds":45.0,"type":"PSIQUIÁTRICO","notes":"","agreement":"SI","lat":"","lon":""},
{"codCNH":"460266","name":"HOSPITAL DE SAGUNTO","idRegion":"ES523","phone":"962339300","fax":"962339301","beds":252.0,"type":"GENERAL","notes":"","agreement":"NO","lat":"39.6744027","lon":"-0.23108298812022898"},
{"codCNH":"430300","name":"CENTRE SOCIOSANITARI I RESIDÈNCIA ASSISTIDA SALOU","idRegion":"ES514","phone":"977774705","fax":"977774705","beds":30.0,"type":"GERIATRÍA Y/O LARGA ESTANCIA","notes":"","agreement":"NO","lat":"","lon":""},
{"codCNH":"170323","name":"CENTRE SOCIOSANITARI PARC HOSPITALARI MARTÍ I JULIÀ","idRegion":"ES512","phone":"972182512","fax":"972182575","beds":120.0,"type":"GERIATRÍA Y/O LARGA ESTANCIA","notes":"","agreement":"NO","lat":"","lon":""},
{"codCNH":"170216","name":"HOSPITAL PSIQUIÀTRIC","idRegion":"ES512","phone":"972182512","fax":"972182575","beds":593.0,"type":"PSIQUIÁTRICO","notes":"","agreement":"NO","lat":"39.58452835","lon":"2.643167766932394"},
{"codCNH":"170301","name":"HOSPITAL SANTA CATERINA-IAS","idRegion":"ES512","phone":"972182600","fax":"972182605","beds":178.0,"type":"GENERAL","notes":"","agreement":"","lat":"","lon":""},
{"codCNH":"240188","name":"HOSPITAL SAN JUAN DE DIOS","idRegion":"ES413","phone":"987232500","fax":"987243470","beds":297.0,"type":"GENERAL","notes":"","agreement":"SI","lat":"","lon":""},
{"codCNH":"460240","name":"HOSPITAL INTERMUTUAL DE LEVANTE","idRegion":"ES523","phone":"961350250","fax":"961350477","beds":230.0,"type":"TRAUMATOLOGÍA Y/O REHABILITACIÓN","notes":"","agreement":"NO","lat":"39.5535333","lon":"-0.4825441"},
{"codCNH":"350367","name":"HOSPITAL SAN ROQUE MASPALOMAS","idRegion":"ES705","phone":"928063600","fax":"928063644","beds":147.0,"type":"GENERAL","notes":"","agreement":"SI","lat":"27.74983515","lon":"-15.607310066172097"},
{"codCNH":"350304","name":"HOSPITAL CLÍNICA ROCA (ROCA GESTIÓN HOSPITALARIA)","idRegion":"ES705","phone":"928769004","fax":"928761248","beds":81.0,"type":"GENERAL","notes":"","agreement":"SI","lat":"","lon":""},
{"codCNH":"380178","name":"HOSPITAL UNIVERSITARIO DE CANARIAS (H.U.C)","idRegion":"ES709","phone":"922678061","fax":"922653808","beds":0.0,"type":"GENERAL","notes":"","agreement":"NO","lat":"","lon":""},
{"codCNH":"380326","name":"COMPLEJO HOSPITALARIO UNIVERSITARIO DE CANARIAS","idRegion":"ES709","phone":"922678061","fax":"922653808","beds":826.0,"type":"GENERAL","notes":"","agreement":"NO","lat":"","lon":""},
{"codCNH":"110305","name":"HOSPITAL SAN CARLOS","idRegion":"ES612","phone":"956598100","fax":"","beds":0.0,"type":"GENERAL","notes":"","agreement":"NO","lat":"","lon":""},
{"codCNH":"300222","name":"HOSPITAL GENERAL UNIVERSITARIO LOS ARCOS DEL MAR MENOR","idRegion":"ES620","phone":"968565000","fax":"968565030","beds":255.0,"type":"GENERAL","notes":"","agreement":"NO","lat":"37.81917095","lon":"-0.8598981509356811"},
{"codCNH":"280920","name":"HOSPITAL EL ESCORIAL","idRegion":"ES300","phone":"918973000","fax":"918973005","beds":91.0,"type":"GENERAL","notes":"","agreement":"NO","lat":"40.607227","lon":"-4.119638500000001"},
{"codCNH":"300339","name":"HOSPITAL DE CUIDADOS MEDIOS VILLADEMAR","idRegion":"ES620","phone":"968187346","fax":"968184822","beds":99.0,"type":"GERIATRÍA Y/O LARGA ESTANCIA","notes":"","agreement":"SI","lat":"","lon":""},
{"codCNH":"380244","name":"HOSPITAL NUESTRA SEÑORA DE GUADALUPE","idRegion":"ES706","phone":"922140200","fax":"922140250","beds":40.0,"type":"GENERAL","notes":"","agreement":"NO","lat":"","lon":""},
{"codCNH":"281258","name":"HOSPITAL UNIVERSITARIO INFANTA SOFÍA","idRegion":"ES300","phone":"911914000","fax":"911915017","beds":271.0,"type":"GENERAL","notes":"","agreement":"NO","lat":"","lon":""},
{"codCNH":"30187","name":"HOSPITAL SANT VICENT DEL RASPEIG","idRegion":"ES521","phone":"965907700","fax":"965907703","beds":179.0,"type":"GERIATRÍA Y/O LARGA ESTANCIA","notes":"","agreement":"NO","lat":"38.3964248","lon":"-0.5250338999999999"},
{"codCNH":"110223","name":"HOSPITAL VIRGEN DEL CAMINO","idRegion":"ES612","phone":"956048068","fax":"956048058","beds":118.0,"type":"GENERAL","notes":"","agreement":"SI","lat":"38.1654484","lon":"-0.9306806999999999"},
{"codCNH":"81287","name":"RESIDÈNCIA L'ESTADA","idRegion":"ES511","phone":"937926612","fax":"937926287","beds":60.0,"type":"GERIATRÍA Y/O LARGA ESTANCIA","notes":"","agreement":"NO","lat":"","lon":""},
{"codCNH":"80983","name":"PARC SANITARI SANT JOAN DE DÉU - RECINTE SANT BOI.","idRegion":"ES511","phone":"936406350","fax":"936520051","beds":1065.0,"type":"GENERAL","notes":"","agreement":"","lat":"","lon":""},
{"codCNH":"80977","name":"BENITO MENNI,COMPLEX ASSISTENCIAL EN SALUT MENTAL.","idRegion":"ES511","phone":"936402400","fax":"936400268","beds":774.0,"type":"PSIQUIÁTRICO","notes":"","agreement":"NO","lat":"","lon":""},
{"codCNH":"81228","name":"PRYTANIS SANT BOI CENTRE SOCIOSANITARI","idRegion":"ES511","phone":"936300931","fax":"936300877","beds":122.0,"type":"GERIATRÍA Y/O LARGA ESTANCIA","notes":"","agreement":"NO","lat":"","lon":""},
{"codCNH":"81000","name":"HOSPITAL DE SANT CELONI.","idRegion":"ES511","phone":"938670617","fax":"938672311","beds":100.0,"type":"GENERAL","notes":"","agreement":"","lat":"41.690137","lon":"2.4916702"},
{"codCNH":"81234","name":"CENTRE SOCIOSANITARI VERGE DEL PUIG","idRegion":"ES511","phone":"938673995","fax":"938672311","beds":40.0,"type":"GERIATRÍA Y/O LARGA ESTANCIA","notes":"","agreement":"NO","lat":"","lon":""},
{"codCNH":"82023","name":"CENTRE GERONTOLÒGIC AMMA SANT CUGAT","idRegion":"ES511","phone":"935836100","fax":"935895725","beds":4.0,"type":"GERIATRÍA Y/O LARGA ESTANCIA","notes":"","agreement":"NO","lat":"","lon":""},
{"codCNH":"81017","name":"HOSPITAL UNIVERSITARI GENERAL DE CATALUNYA","idRegion":"ES511","phone":"935656000","fax":"935892618","beds":286.0,"type":"GENERAL","notes":"","agreement":"NO","lat":"41.6267278","lon":"0.6136024999999999"},
{"codCNH":"82190","name":"IVÁN MAÑERO CLÍNIC","idRegion":"ES511","phone":"902401540","fax":"","beds":17.0,"type":"QUIRÚRGICO","notes":"","agreement":"NO","lat":"","lon":""},
{"codCNH":"80137","name":"CENTRE DE PREVENCIÓ I REHABILITACIÓ ASEPEYO","idRegion":"ES511","phone":"935653900","fax":"","beds":138.0,"type":"GENERAL","notes":"","agreement":"NO","lat":"41.48977960000001","lon":"2.0784011153051267"},
{"codCNH":"81919","name":"PARC SANITARI SANT JOAN DE DEU-SERVEIS SANITARIS CENTRE PENITENCIARI BRIANS-2","idRegion":"ES511","phone":"936935000","fax":"936935013","beds":152.0,"type":"GENERAL","notes":"","agreement":"NO","lat":"","lon":""},
{"codCNH":"81683","name":"PARC SANITARI SANT JOAN DE DEU - BRIANS 1.","idRegion":"ES511","phone":"937758000","fax":"937713661","beds":150.0,"type":"GENERAL","notes":"","agreement":"NO","lat":"","lon":""},
{"codCNH":"30250","name":"HOSPITAL UNIVERSITARIO SAN JUAN DE ALICANTE","idRegion":"ES521","phone":"965169400","fax":"965169520","beds":396.0,"type":"GENERAL","notes":"","agreement":"NO","lat":"","lon":""},
{"codCNH":"82034","name":"SERVEIS SANITARIS SANT JOAN DE VILATORRADA","idRegion":"ES511","phone":"932140100","fax":"932140179","beds":56.0,"type":"GENERAL","notes":"","agreement":"NO","lat":"","lon":""},
{"codCNH":"82066","name":"HOSPITAL DE SANT JOAN DESPÍ MOISÈS BROGGI","idRegion":"ES511","phone":"935531200","fax":"","beds":328.0,"type":"GENERAL","notes":"","agreement":"","lat":"41.3731841","lon":"2.0726252526945275"},
{"codCNH":"81038","name":"HOSPITAL RESIDÈNCIA SANT CAMIL - CONSORCI SANITARI DEL GARRAF.","idRegion":"ES511","phone":"938960025","fax":"938961287","beds":295.0,"type":"GENERAL","notes":"","agreement":"","lat":"","lon":""},
{"codCNH":"350265","name":"QUINTA MÉDICA DE REPOSO, S.A.","idRegion":"ES705","phone":"928640050","fax":"928641407","beds":78.0,"type":"PSIQUIÁTRICO","notes":"","agreement":"NO","lat":"","lon":""},
{"codCNH":"81069","name":"FUNDACIÓ HOSPITAL DE L'ESPERIT SANT","idRegion":"ES511","phone":"933869648","fax":"933850100","beds":177.0,"type":"GENERAL","notes":"","agreement":"","lat":"","lon":""},
{"codCNH":"81056","name":"CENTRES ASSISTENCIALS DR. EMILI MIRA I LÓPEZ (RECINTE TORRIBERA).","idRegion":"ES511","phone":"934628926","fax":"934683742","beds":454.0,"type":"PSIQUIÁTRICO","notes":"","agreement":"NO","lat":"","lon":""},
{"codCNH":"390152","name":"CLÍNICA MOMPÍA, S.A.U.","idRegion":"ES130","phone":"942584100","fax":"942584114","beds":105.0,"type":"GENERAL","notes":"","agreement":"NO","lat":"","lon":""},
{"codCNH":"380260","name":"HOSPITAL NUESTRA SEÑORA DE LOS DOLORES","idRegion":"ES707","phone":"922423204","fax":"922420552","beds":144.0,"type":"GERIATRÍA Y/O LARGA ESTANCIA","notes":"","agreement":"SI","lat":"28.4486103","lon":"-16.30885475696938"},
{"codCNH":"380099","name":"VITHAS HOSPITAL SANTA CRUZ","idRegion":"ES709","phone":"922534733","fax":"922281166","beds":61.0,"type":"GENERAL","notes":"","agreement":"SI","lat":"","lon":""},
{"codCNH":"350271","name":"HOSPITAL DE SAN ROQUE GUÍA","idRegion":"ES705","phone":"928882000","fax":"928888221","beds":0.0,"type":"GERIATRÍA Y/O LARGA ESTANCIA","notes":"","agreement":"NO","lat":"","lon":""},
{"codCNH":"430213","name":"POLICLÍNICA COMARCAL DEL VENDRELL.","idRegion":"ES511","phone":"977660140","fax":"977666337","beds":136.0,"type":"GERIATRÍA Y/O LARGA ESTANCIA","notes":"","agreement":"NO","lat":"41.22608505","lon":"1.538194821786097"},
{"codCNH":"150365","name":"HOSPITAL HM ROSALEDA - HM LA ESPERANZA","idRegion":"ES111","phone":"981551200","fax":"981563592","beds":119.0,"type":"GENERAL","notes":"","agreement":"SI","lat":"","lon":""},
{"codCNH":"150256","name":"HOSPITAL HM ESPERANZA","idRegion":"ES111","phone":"981552200","fax":"981158248","beds":0.0,"type":"GENERAL","notes":"","agreement":"SI","lat":"","lon":""},
{"codCNH":"150269","name":"HOSPITAL HM ROSALEDA","idRegion":"ES111","phone":"981551200","fax":"","beds":0.0,"type":"GENERAL","notes":"","agreement":"SI","lat":"","lon":""},
{"codCNH":"150222","name":"HOSPITAL GIL CASARES","idRegion":"ES111","phone":"981950000","fax":"981950900","beds":0.0,"type":"GENERAL","notes":"","agreement":"NO","lat":"42.86875375","lon":"-8.563915998568572"},
{"codCNH":"150238","name":"HOSPITAL MEDICO CIRURXICO DE CONXO","idRegion":"ES111","phone":"981951500","fax":"981950900","beds":0.0,"type":"GENERAL","notes":"","agreement":"NO","lat":"","lon":""},
{"codCNH":"150217","name":"HOSPITAL CLINICO UNIVERSITARIO DE SANTIAGO","idRegion":"ES111","phone":"981950000","fax":"981950900","beds":0.0,"type":"GENERAL","notes":"","agreement":"NO","lat":"","lon":""},
{"codCNH":"150243","name":"HOSPITAL PSIQUIATRICO DE CONXO","idRegion":"ES111","phone":"981951900","fax":"981951901","beds":0.0,"type":"GENERAL","notes":"","agreement":"NO","lat":"42.8623475","lon":"-8.5563246"},
{"codCNH":"150200","name":"COMPLEXO HOSPITALARIO UNIVERSITARIO DE SANTIAGO","idRegion":"ES111","phone":"981950000","fax":"981950900","beds":1395.0,"type":"GENERAL","notes":"","agreement":"NO","lat":"42.86984365","lon":"-8.565894348783276"},
{"codCNH":"480293","name":"AVANCES MÉDICOS S.A","idRegion":"ES213","phone":"902407071","fax":"944833374","beds":24.0,"type":"PSIQUIÁTRICO","notes":"","agreement":"NO","lat":"","lon":""},
{"codCNH":"480255","name":"HOSPITAL SAN JUAN DE DIOS","idRegion":"ES213","phone":"944939900","fax":"944939907","beds":105.0,"type":"GENERAL","notes":"","agreement":"SI","lat":"","lon":""},
{"codCNH":"460272","name":"HOSPITAL DOCTOR MOLINER","idRegion":"ES523","phone":"961687900","fax":"961687901","beds":179.0,"type":"GERIATRÍA Y/O LARGA ESTANCIA","notes":"","agreement":"NO","lat":"39.65591679999999","lon":"-0.4742682180919162"},
{"codCNH":"250117","name":"FUNDACIÓ SANT HOSPITAL.","idRegion":"ES513","phone":"973350050","fax":"973353505","beds":88.0,"type":"GENERAL","notes":"","agreement":"","lat":"42.3548545","lon":"1.4609584999999998"},
{"codCNH":"250138","name":"CENTRE SANITARI DEL SOLSONÈS, FPC","idRegion":"ES513","phone":"973481172","fax":"973481098","beds":32.0,"type":"GERIATRÍA Y/O LARGA ESTANCIA","notes":"","agreement":"NO","lat":"","lon":""},
{"codCNH":"380359","name":"CLÍNICA TARA","idRegion":"ES709","phone":"922563351","fax":"922563499","beds":12.0,"type":"GENERAL","notes":"","agreement":"SI","lat":"28.478104300000002","lon":"-16.403262599999998"},
{"codCNH":"60231","name":"HOSPITAL SIBERIA-SERENA","idRegion":"ES431","phone":"924648100","fax":"924648111","beds":0.0,"type":"GENERAL","notes":"","agreement":"NO","lat":"39.031241200000004","lon":"-5.223697347278689"},
{"codCNH":"450089","name":"CLÍNICA MARAZUELA, S.A.","idRegion":"ES425","phone":"925815281","fax":"925815141","beds":15.0,"type":"GENERAL","notes":"","agreement":"NO","lat":"39.96195195","lon":"-4.825014369163424"},
{"codCNH":"450067","name":"HOSPITAL GENERAL NUESTRA SEÑORA DEL PRADO","idRegion":"ES425","phone":"925803600","fax":"925815444","beds":312.0,"type":"GENERAL","notes":"","agreement":"NO","lat":"39.957868299999994","lon":"-4.853211"},
{"codCNH":"350390","name":"CLINICA JORGANI","idRegion":"ES708","phone":"928346868","fax":"928346363","beds":11.0,"type":"GENERAL","notes":"","agreement":"NO","lat":"","lon":""},
{"codCNH":"350287","name":"HOSPITAL CIUDAD DE TELDE","idRegion":"ES705","phone":"928707555","fax":"928707554","beds":219.0,"type":"GERIATRÍA Y/O LARGA ESTANCIA","notes":"","agreement":"SI","lat":"","lon":""},
{"codCNH":"81075","name":"HOSPITAL DE TERRASSA.","idRegion":"ES511","phone":"937310007","fax":"937310959","beds":460.0,"type":"GENERAL","notes":"","agreement":"","lat":"41.5568023","lon":"2.0531018638517624"},
{"codCNH":"81081","name":"HOSPITAL DE SANT LLÀTZER","idRegion":"ES511","phone":"937837111","fax":"937831555","beds":77.0,"type":"GERIATRÍA Y/O LARGA ESTANCIA","notes":"","agreement":"NO","lat":"41.56261050000001","lon":"2.017399878476925"},
{"codCNH":"81094","name":"HOSPITAL UNIVERSITARI MÚTUA DE TERRASSA","idRegion":"ES511","phone":"937365050","fax":"937365059","beds":534.0,"type":"GENERAL","notes":"","agreement":"","lat":"","lon":""},
{"codCNH":"81458","name":"ÀPTIMA CENTRE CLÍNIC - MÚTUA DE TERRASSA","idRegion":"ES511","phone":"937365072","fax":"937365009","beds":70.0,"type":"GENERAL","notes":"","agreement":"NO","lat":"","lon":""},
{"codCNH":"81728","name":"HOSPITAL GENERAL PENITENCIARI","idRegion":"ES511","phone":"937317861","fax":"","beds":32.0,"type":"GENERAL","notes":"","agreement":"NO","lat":"41.76029295","lon":"1.8079555786366417"},
{"codCNH":"81537","name":"CENTRE VALLPARADÍS","idRegion":"ES511","phone":"937365030","fax":"937365009","beds":81.0,"type":"GERIATRÍA Y/O LARGA ESTANCIA","notes":"","agreement":"NO","lat":"41.566000700000004","lon":"2.0208153"},
{"codCNH":"350326","name":"HOSPITEN LANZAROTE (CLÍNICAS DEL SUR S.L.U.)","idRegion":"ES708","phone":"928596100","fax":"928515635","beds":61.0,"type":"GENERAL","notes":"","agreement":"SI","lat":"","lon":""},
{"codCNH":"200219","name":"CLINICA SANTA MARÍA DE LA ASUNCIÓN, (INVIZA, S.A.)","idRegion":"ES212","phone":"943697000","fax":"943674438","beds":120.0,"type":"GENERAL","notes":"","agreement":"SI","lat":"","lon":""},
{"codCNH":"130128","name":"HOSPITAL GENERAL DE TOMELLOSO","idRegion":"ES422","phone":"926525800","fax":"","beds":155.0,"type":"GENERAL","notes":"","agreement":"NO","lat":"","lon":""},
{"codCNH":"281337","name":"HOSPITAL UNIVERSITARIO DE TORREJÓN","idRegion":"ES300","phone":"916262518","fax":"914886624","beds":250.0,"type":"GENERAL","notes":"","agreement":"NO","lat":"40.46509355","lon":"-3.4362904832578587"},
{"codCNH":"390149","name":"HOSPITAL SIERRALLANA","idRegion":"ES130","phone":"942847400","fax":"942847501","beds":301.0,"type":"GENERAL","notes":"Se incluyen las camas del Dispositivo Asistencial Tres Mares","agreement":"NO","lat":"43.3661136","lon":"-4.0737284"},
{"codCNH":"281157","name":"HOSPITAL UNIVERSITARIO HM TORRELODONES","idRegion":"ES300","phone":"912675000","fax":"918591555","beds":86.0,"type":"GENERAL","notes":"","agreement":"SI","lat":"","lon":""},
{"codCNH":"290213","name":"HOSPITAL MARÍTIMO DE TORREMOLINOS","idRegion":"ES617","phone":"951033735","fax":"951033705","beds":0.0,"type":"GENERAL","notes":"","agreement":"NO","lat":"36.63713775","lon":"-4.487456676361466"},
{"codCNH":"290228","name":"CLÍNICA SANTA ELENA","idRegion":"ES617","phone":"952386266","fax":"952380309","beds":90.0,"type":"GENERAL","notes":"","agreement":"NO","lat":"40.445681799999996","lon":"-3.716825558930167"},
{"codCNH":"30298","name":"HOSPÌTAL QUIRONSALUD TORREVIEJA","idRegion":"ES521","phone":"966921313","fax":"966922706","beds":132.0,"type":"GENERAL","notes":"","agreement":"SI","lat":"","lon":""},
{"codCNH":"30339","name":"HOSPITAL UNIVERSITARIO DE TORREVIEJA","idRegion":"ES521","phone":"965721200","fax":"965721368","beds":269.0,"type":"GENERAL","notes":"Concesión Administrativa a Entidad Privada","agreement":"NO","lat":"","lon":""},
{"codCNH":"430167","name":"HOSPITAL DE TORTOSA VERGE DE LA CINTA","idRegion":"ES514","phone":"977519100","fax":"977519111","beds":248.0,"type":"GENERAL","notes":"","agreement":"","lat":"40.81114525","lon":"0.5246534850153289"},
{"codCNH":"430173","name":"HOSPITAL DE LA SANTA CREU","idRegion":"ES514","phone":"977500533","fax":"977500085","beds":250.0,"type":"GERIATRÍA Y/O LARGA ESTANCIA","notes":"","agreement":"NO","lat":"40.827855","lon":"0.5095964465825074"},
{"codCNH":"430189","name":"CLÍNICA TERRES DE L'EBRE","idRegion":"ES514","phone":"977588200","fax":"977588195","beds":40.0,"type":"GENERAL","notes":"","agreement":"","lat":"","lon":""},
{"codCNH":"250143","name":"HOSPITAL COMARCAL DEL PALLARS","idRegion":"ES513","phone":"973652255","fax":"973651487","beds":63.0,"type":"GENERAL","notes":"","agreement":"","lat":"42.1644941","lon":"0.8973612"},
{"codCNH":"310137","name":"HOSPITAL REINA SOFÍA","idRegion":"ES220","phone":"848434000","fax":"848434111","beds":190.0,"type":"GENERAL","notes":"","agreement":"NO","lat":"42.0408381","lon":"-1.6252839213207353"},
{"codCNH":"230098","name":"HOSPITAL SAN JUAN DE LA CRUZ","idRegion":"ES616","phone":"953028200","fax":"953028251","beds":231.0,"type":"GENERAL","notes":"","agreement":"NO","lat":"38.01945355","lon":"-3.3850601020055966"},
{"codCNH":"480327","name":"HOSPITAL URDULIZ OSPITALEA","idRegion":"ES213","phone":"946007005","fax":"","beds":128.0,"type":"GENERAL","notes":"","agreement":"NO","lat":"43.37511385","lon":"-2.959909316992888"},
{"codCNH":"200230","name":"SANATORIO DE USURBIL, S.L.","idRegion":"ES212","phone":"943361124","fax":"943362898","beds":80.0,"type":"PSIQUIÁTRICO","notes":"","agreement":"SI","lat":"43.272630799999995","lon":"-2.0610665889562196"},
{"codCNH":"410386","name":"HOSPITAL DE ALTA RESOLUCIÓN DE UTRERA","idRegion":"ES618","phone":"955839097","fax":"955099147","beds":14.0,"type":"GENERAL","notes":"","agreement":"NO","lat":"37.1756949","lon":"-5.785237272103666"},
{"codCNH":"281236","name":"HOSPITAL UNIVERSITARIO INFANTA ELENA","idRegion":"ES300","phone":"918948410","fax":"918948538","beds":158.0,"type":"GENERAL","notes":"","agreement":"NO","lat":"","lon":""},
{"codCNH":"130087","name":"HOSPITAL GENERAL DE VALDEPEÑAS","idRegion":"ES422","phone":"926320200","fax":"","beds":103.0,"type":"GENERAL","notes":"","agreement":"NO","lat":"","lon":""},
{"codCNH":"330313","name":"HOSPITAL DE LUARCA -ASISTENCIA MÉDICA OCCIDENTALSL","idRegion":"ES120","phone":"985470707","fax":"985470737","beds":19.0,"type":"OTROS MONOGRÁFICOS","notes":"","agreement":"NO","lat":"","lon":""},
{"codCNH":"30190","name":"SANATORIO SAN FRANCISCO DE BORJA FONTILLES","idRegion":"ES521","phone":"965583350","fax":"965583376","beds":96.0,"type":"GERIATRÍA Y/O LARGA ESTANCIA","notes":"","agreement":"NO","lat":"38.77684945","lon":"-0.08776492322363694"},
{"codCNH":"430228","name":"PIUS HOSPITAL DE VALLS","idRegion":"ES514","phone":"977613000","fax":"977605014","beds":142.0,"type":"GENERAL","notes":"","agreement":"","lat":"41.283092700000005","lon":"1.2513743999999998"},
{"codCNH":"430234","name":"RESIDÈNCIA ALT CAMP","idRegion":"ES514","phone":"977600292","fax":"977603814","beds":50.0,"type":"GERIATRÍA Y/O LARGA ESTANCIA","notes":"","agreement":"NO","lat":"41.22160505","lon":"1.2621495311509046"},
{"codCNH":"380276","name":"HOSPITAL INSULAR NTRA. SRA. DE LOS REYES","idRegion":"ES703","phone":"922553500","fax":"922553512","beds":32.0,"type":"GENERAL","notes":"","agreement":"NO","lat":"","lon":""},
{"codCNH":"290206","name":"HOSPITAL DE LA AXARQUÍA","idRegion":"ES617","phone":"951067010","fax":"951067009","beds":197.0,"type":"GENERAL","notes":"","agreement":"NO","lat":"36.86647765","lon":"-4.111017160388603"},
{"codCNH":"290348","name":"CLÍNICA EL SERANIL","idRegion":"ES617","phone":"952513267","fax":"952513900","beds":60.0,"type":"PSIQUIÁTRICO","notes":"","agreement":"NO","lat":"36.715762299999994","lon":"-4.1990574"},
{"codCNH":"430298","name":"HOSPITAL DEL VENDRELL","idRegion":"ES514","phone":"977257900","fax":"977257915","beds":120.0,"type":"GENERAL","notes":"","agreement":"","lat":"41.22713515","lon":"1.5537422859808887"},
{"codCNH":"320150","name":"HOSPITAL DE VERIN","idRegion":"ES113","phone":"988413636","fax":"988411087","beds":80.0,"type":"GENERAL","notes":"RM compartida (3 unidades móviles RM)","agreement":"NO","lat":"41.9541059","lon":"-7.430291499999999"},
{"codCNH":"81120","name":"HOSPITAL DE LA SANTA CREU","idRegion":"ES511","phone":"938833300","fax":"938895087","beds":127.0,"type":"GERIATRÍA Y/O LARGA ESTANCIA","notes":"","agreement":"NO","lat":"40.827855","lon":"0.5095964465825074"},
{"codCNH":"81115","name":"CLÍNICA SANT JOSEP","idRegion":"ES511","phone":"938861700","fax":"938891779","beds":21.0,"type":"GENERAL","notes":"","agreement":"NO","lat":"41.72265295","lon":"1.8323943362254929"},
{"codCNH":"81108","name":"HOSPITAL  UNIVERSITARI DE VIC","idRegion":"ES511","phone":"938891111","fax":"938850308","beds":292.0,"type":"GENERAL","notes":"","agreement":"","lat":"41.93692715","lon":"2.2601401989331857"},
{"codCNH":"250156","name":"ESPITAU VAL D'ARAN","idRegion":"ES513","phone":"973640004","fax":"973640529","beds":31.0,"type":"GENERAL","notes":"","agreement":"","lat":"42.702264899999996","lon":"0.7973510489816078"},
{"codCNH":"360209","name":"VITHAS HOSPITAL NOSA SEÑORA DE FATIMA","idRegion":"ES114","phone":"986821100","fax":"986480062","beds":200.0,"type":"GENERAL","notes":"","agreement":"SI","lat":"","lon":""},
{"codCNH":"360216","name":"CONCHEIRO CENTRO MEDICO QUIRURGICO","idRegion":"ES114","phone":"986413244","fax":"986419908","beds":40.0,"type":"QUIRÚRGICO","notes":"","agreement":"SI","lat":"","lon":""},
{"codCNH":"360255","name":"CENTRO MEDICO PINTADO","idRegion":"ES114","phone":"986413300","fax":"986412968","beds":12.0,"type":"MATERNO-INFANTIL","notes":"","agreement":"NO","lat":"37.3779518","lon":"-6.124662337491516"},
{"codCNH":"360268","name":"SANATORIO PSIQUIATRICO SAN JOSE","idRegion":"ES114","phone":"986235606","fax":"986211249","beds":48.0,"type":"PSIQUIÁTRICO","notes":"","agreement":"NO","lat":"","lon":""},
{"codCNH":"360195","name":"HOSPITAL HM VIGO","idRegion":"ES114","phone":"986411466","fax":"986485510","beds":12.0,"type":"GENERAL","notes":"","agreement":"NO","lat":"","lon":""},
{"codCNH":"360368","name":"COMPLEXO HOSPITALARIO UNIVERSITARIO DE VIGO","idRegion":"ES114","phone":"986816000","fax":"986816029","beds":1273.0,"type":"GENERAL","notes":"","agreement":"NO","lat":"","lon":""},
{"codCNH":"360118","name":"HOSPITAL MEIXOEIRO","idRegion":"","phone":"986811111","fax":"986276416","beds":0.0,"type":"GENERAL","notes":"","agreement":"NO","lat":"42.2145115","lon":"-8.6847362"},
{"codCNH":"360157","name":"HOSPITAL NICOLAS PEÑA","idRegion":"ES114","phone":"986219115","fax":"986219124","beds":0.0,"type":"GENERAL","notes":"","agreement":"NO","lat":"42.2251833","lon":"-8.728477180410696"},
{"codCNH":"360182","name":"HOSPITAL POVISA","idRegion":"ES114","phone":"986413144","fax":"986421439","beds":573.0,"type":"GENERAL","notes":"","agreement":"SI","lat":"42.2236592","lon":"-8.726596918338641"},
{"codCNH":"360160","name":"FREMAP, HOSPITAL DE VIGO","idRegion":"ES114","phone":"986413033","fax":"986413099","beds":17.0,"type":"TRAUMATOLOGÍA Y/O REHABILITACIÓN","notes":"","agreement":"NO","lat":"","lon":""},
{"codCNH":"360274","name":"CLINICA RESIDENCIA EL PINAR","idRegion":"ES114","phone":"986266400","fax":"986267733","beds":84.0,"type":"PSIQUIÁTRICO","notes":"","agreement":"SI","lat":"40.02372025","lon":"-3.9168576336949035"},
{"codCNH":"360379","name":"HOSPITAL UNIVERSITARIO ALVARO CUNQUEIRO","idRegion":"ES114","phone":"986811111","fax":"986825173","beds":0.0,"type":"GENERAL","notes":"","agreement":"NO","lat":"","lon":""},
{"codCNH":"81141","name":"HOSPITAL DE VILADECANS","idRegion":"ES511","phone":"936590111","fax":"936590612","beds":110.0,"type":"GENERAL","notes":"","agreement":"","lat":"41.316308299999996","lon":"2.0156034"},
{"codCNH":"81896","name":"CENTRE SOCIAL I SANITARI FREDERICA MONTSENY","idRegion":"ES511","phone":"936473525","fax":"932111428","beds":76.0,"type":"GERIATRÍA Y/O LARGA ESTANCIA","notes":"","agreement":"NO","lat":"","lon":""},
{"codCNH":"81430","name":"HOSPITAL COMARCAL DE L'ALT PENEDÈS.","idRegion":"ES511","phone":"938180440","fax":"938180491","beds":144.0,"type":"GENERAL","notes":"","agreement":"","lat":"41.35659015","lon":"1.7050399634265236"},
{"codCNH":"81795","name":"CENTRE SOCIOSANITARI RICARD FORTUNY","idRegion":"ES511","phone":"938172357","fax":"938904440","beds":187.0,"type":"GERIATRÍA Y/O LARGA ESTANCIA","notes":"","agreement":"NO","lat":"","lon":""},
{"codCNH":"360353","name":"HOSPITAL DO SALNES (*)","idRegion":"ES114","phone":"986568000","fax":"986568001","beds":122.0,"type":"GENERAL","notes":"RM compartida (3 unidades móviles RM)","agreement":"NO","lat":"42.5138575","lon":"-8.75159831498814"},
{"codCNH":"81189","name":"HOSPITAL SANT ANTONI ABAT - CONSORCI SANITARI DEL GARRAF.","idRegion":"ES511","phone":"938931616","fax":"938140042","beds":111.0,"type":"GERIATRÍA Y/O LARGA ESTANCIA","notes":"","agreement":"","lat":"","lon":""},
{"codCNH":"120136","name":"HOSPITAL UNIVERSITARIO DE LA PLANA","idRegion":"ES522","phone":"964399775","fax":"964399858","beds":258.0,"type":"GENERAL","notes":"","agreement":"NO","lat":"","lon":""},
{"codCNH":"430276","name":"RESIDÈNCIA VILA-SECA","idRegion":"ES514","phone":"977395825","fax":"","beds":35.0,"type":"GERIATRÍA Y/O LARGA ESTANCIA","notes":"","agreement":"NO","lat":"41.11106475","lon":"1.1493389713169768"},
{"codCNH":"81022","name":"CASAL DE CURACIÓ","idRegion":"ES511","phone":"937590241","fax":"937500420","beds":81.0,"type":"GERIATRÍA Y/O LARGA ESTANCIA","notes":"","agreement":"NO","lat":"41.50162945","lon":"2.3858982759032648"},
{"codCNH":"280936","name":"HOSPITAL VIRGEN DE LA POVEDA","idRegion":"ES300","phone":"918608000","fax":"918620100","beds":202.0,"type":"GERIATRÍA Y/O LARGA ESTANCIA","notes":"","agreement":"NO","lat":"","lon":""},
{"codCNH":"240220","name":"HOSPITAL VALLE DE LACIANA","idRegion":"ES413","phone":"987481057","fax":"987470837","beds":15.0,"type":"GERIATRÍA Y/O LARGA ESTANCIA","notes":"","agreement":"SI","lat":"","lon":""},
{"codCNH":"30204","name":"HOSPITAL MARINA BAIXA DE LA VILA JOIOSA","idRegion":"ES521","phone":"966859800","fax":"966859900","beds":286.0,"type":"GENERAL","notes":"","agreement":"SI","lat":"38.506750200000006","lon":"-0.2311157"},
{"codCNH":"110218","name":"HOSPITAL VIRGEN DE LAS MONTAÑAS","idRegion":"ES612","phone":"956041000","fax":"956041075","beds":108.0,"type":"GENERAL","notes":"","agreement":"SI","lat":"37.37527","lon":"-6.0031429"},
{"codCNH":"60140","name":"HOSPITAL QUIRÓNSALUD SANTA JUSTA","idRegion":"ES431","phone":"924840746","fax":"924847505","beds":29.0,"type":"QUIRÚRGICO","notes":"","agreement":"SI","lat":"","lon":""},
{"codCNH":"240205","name":"CLÍNICA ALTOLLANO","idRegion":"ES413","phone":"987286000","fax":"987286012","beds":110.0,"type":"GENERAL","notes":"","agreement":"SI","lat":"42.623935100000004","lon":"-5.5736995710571815"},
{"codCNH":"20147","name":"HOSPITAL GENERAL DE VILLAROBLEDO","idRegion":"ES421","phone":"967133000","fax":"967133002","beds":114.0,"type":"GENERAL","notes":"","agreement":"NO","lat":"","lon":""},
{"codCNH":"120115","name":"HOSPITAL COMARCAL DE VINARÒS","idRegion":"ES522","phone":"964477000","fax":"964400736","beds":150.0,"type":"GENERAL","notes":"","agreement":"NO","lat":"40.4638585","lon":"0.4499678"},
{"codCNH":"460229","name":"HOSPITAL LLUÍS ALCANYÍS DE XÀTIVA","idRegion":"ES523","phone":"962289300","fax":"962289354","beds":273.0,"type":"GENERAL","notes":"","agreement":"NO","lat":"39.0066786","lon":"-0.5096208437643529"},
{"codCNH":"190061","name":"U.R.R. DE ENFERMOS PSÍQUICOS ALCOHETE","idRegion":"ES424","phone":"949885402","fax":"949291001","beds":165.0,"type":"PSIQUIÁTRICO","notes":"","agreement":"NO","lat":"","lon":""},
{"codCNH":"300243","name":"HOSPITAL VIRGEN DEL CASTILLO","idRegion":"ES620","phone":"968719800","fax":"968719806","beds":96.0,"type":"GENERAL","notes":"","agreement":"NO","lat":"38.61568215","lon":"-1.1079025116061842"},
{"codCNH":"60188","name":"HOSPITAL PARQUE VIA DE LA PLATA","idRegion":"ES431","phone":"924552755","fax":"924555388","beds":9.0,"type":"GENERAL","notes":"","agreement":"SI","lat":"39.48694535","lon":"-6.371813033242754"},
{"codCNH":"60208","name":"HOSPITAL DE ZAFRA","idRegion":"ES431","phone":"924029200","fax":"942029320","beds":0.0,"type":"GENERAL","notes":"","agreement":"NO","lat":"38.4304576","lon":"-6.4218064779142585"},
{"codCNH":"480268","name":"RED DE SALUD MENTAL DE BIZKAIA (HOSPITAL DE ZALDIBAR)","idRegion":"ES213","phone":"946032800","fax":"946032819","beds":111.0,"type":"PSIQUIÁTRICO","notes":"","agreement":"NO","lat":"","lon":""},
{"codCNH":"480274","name":"RED DE SALUD MENTAL DE BIZKAIA (HOSPITAL DE ZAMUDIO)","idRegion":"ES213","phone":"944006500","fax":"944006526","beds":126.0,"type":"PSIQUIÁTRICO","notes":"","agreement":"NO","lat":"","lon":""},
{"codCNH":"200245","name":"HOSPITAL DE ZUMARRAGA","idRegion":"ES212","phone":"943035000","fax":"943035063","beds":128.0,"type":"GENERAL","notes":"","agreement":"NO","lat":"43.0835953","lon":"-2.3130193"},
{"codCNH":"20158","name":"CENTRO DE ATENCIÓN A LA SALUD MENTAL \"LA MILAGROSA\"","idRegion":"ES421","phone":"967192350","fax":"967248989","beds":0.0,"type":"PSIQUIÁTRICO","notes":"","agreement":"NO","lat":"","lon":""},
{"codCNH":"20117","name":"HOSPITAL UNIVERSITARIO NUESTRA SEÑORA DEL PERPETUO SOCORRO","idRegion":"ES421","phone":"967597799","fax":"967597711","beds":0.0,"type":"GENERAL","notes":"","agreement":"NO","lat":"","lon":""},
{"codCNH":"20100","name":"QUIRONSALUD HOSPITAL ALBACETE","idRegion":"ES421","phone":"967247100","fax":"967245183","beds":65.0,"type":"GENERAL","notes":"","agreement":"SI","lat":"38.98538840000001","lon":"-1.8441820482187483"},
{"codCNH":"20061","name":"CLÍNICA SANTA CRISTINA ALBACETE","idRegion":"ES421","phone":"967223300","fax":"967507790","beds":42.0,"type":"GENERAL","notes":"","agreement":"SI","lat":"","lon":""},
{"codCNH":"20030","name":"HOSPITAL GENERAL UNIVERSITARIO DE ALBACETE","idRegion":"ES421","phone":"967597100","fax":"967243952","beds":0.0,"type":"GENERAL","notes":"","agreement":"NO","lat":"38.98513215","lon":"-1.8464878862457752"},
{"codCNH":"20019","name":"COMPLEJO HOSPITALARIO UNIVERSITARIO DE ALBACETE","idRegion":"ES421","phone":"967597100","fax":"967243952","beds":705.0,"type":"GENERAL","notes":"","agreement":"NO","lat":"","lon":""},
{"codCNH":"30015","name":"HOSPITAL GENERAL UNIVERSITARIO DE ALICANTE","idRegion":"ES521","phone":"965933000","fax":"965245971","beds":794.0,"type":"GENERAL","notes":"","agreement":"NO","lat":"38.3632372","lon":"-0.4859102161254463"},
{"codCNH":"30036","name":"CLÍNICA VISTAHERMOSA GRUPO HLA","idRegion":"ES521","phone":"965268000","fax":"965262405","beds":106.0,"type":"GENERAL","notes":"","agreement":"SI","lat":"","lon":""},
{"codCNH":"30041","name":"VITHAS HOSPITAL PERPETUO INTERNACIONAL","idRegion":"ES521","phone":"965201100","fax":"965144890","beds":103.0,"type":"GENERAL","notes":"","agreement":"SI","lat":"","lon":""},
{"codCNH":"30226","name":"HOSPITAL INTERNACIONAL MEDIMAR, S.A.","idRegion":"ES521","phone":"965162200","fax":"965159038","beds":66.0,"type":"GENERAL","notes":"","agreement":"NO","lat":"","lon":""},
{"codCNH":"30328","name":"HOSPITAL IMED LEVANTE","idRegion":"ES521","phone":"966878787","fax":"965861756","beds":100.0,"type":"GENERAL","notes":"","agreement":"SI","lat":"38.541087450000006","lon":"-0.10644662986050456"},
{"codCNH":"30232","name":"HOSPITAL PSIQUIÁTRICO PENITENCIARIO DE FONTCALENT","idRegion":"ES521","phone":"965102222","fax":"965101761","beds":432.0,"type":"PSIQUIÁTRICO","notes":"","agreement":"NO","lat":"","lon":""},
{"codCNH":"40031","name":"HOSPITAL DE LA CRUZ ROJA","idRegion":"ES611","phone":"950017400","fax":"950017453","beds":0.0,"type":"GENERAL","notes":"","agreement":"NO","lat":"36.843913","lon":"-2.452113724152164"},
{"codCNH":"40059","name":"HOSPITAL VIRGEN DEL MAR","idRegion":"ES611","phone":"950210100","fax":"950290625","beds":76.0,"type":"GENERAL","notes":"","agreement":"SI","lat":"40.4593232","lon":"-3.6786951952687907"},
{"codCNH":"40097","name":"HOSPITAL UNIVERSITARIO TORRECÁRDENAS","idRegion":"ES611","phone":"950016114","fax":"950016120","beds":763.0,"type":"GENERAL","notes":"","agreement":"NO","lat":"36.86258675000001","lon":"-2.44116228068992"},
{"codCNH":"40127","name":"HOSPITAL DE ALTA RESOLUCIÓN EL TOYO","idRegion":"ES611","phone":"950158015","fax":"950158020","beds":44.0,"type":"GENERAL","notes":"","agreement":"NO","lat":"36.85068845","lon":"-2.3126778244198083"},
{"codCNH":"40101","name":"HOSPITAL MEDITERRÁNEO","idRegion":"ES611","phone":"950621063","fax":"950260894","beds":89.0,"type":"GENERAL","notes":"","agreement":"SI","lat":"","lon":""},
{"codCNH":"50034","name":"HOSPITAL PROVINCIAL DE ÁVILA","idRegion":"ES411","phone":"920357200","fax":"920357203","beds":0.0,"type":"GENERAL","notes":"","agreement":"NO","lat":"","lon":""},
{"codCNH":"50049","name":"CLÍNICA SANTA TERESA","idRegion":"ES411","phone":"920252525","fax":"920222342","beds":33.0,"type":"GENERAL","notes":"","agreement":"SI","lat":"","lon":""},
{"codCNH":"50013","name":"HOSPITAL NUESTRA SEÑORA DE SONSOLES","idRegion":"ES411","phone":"920358000","fax":"920358064","beds":0.0,"type":"GENERAL","notes":"","agreement":"NO","lat":"40.6650137","lon":"-4.6660615"},
{"codCNH":"50061","name":"COMPLEJO ASISTENCIAL DE AVILA","idRegion":"ES411","phone":"920358000","fax":"920358064","beds":430.0,"type":"GENERAL","notes":"","agreement":"NO","lat":"","lon":""},
{"codCNH":"60016","name":"COMPLEJO HOSPITALARIO UNIVERSITARIO DE BADAJOZ","idRegion":"ES431","phone":"924218100","fax":"924218126","beds":915.0,"type":"GENERAL","notes":"","agreement":"NO","lat":"","lon":""},
{"codCNH":"60021","name":"HOSPITAL UNIVERSITARIO DE BADAJOZ","idRegion":"ES431","phone":"924218100","fax":"924218126","beds":0.0,"type":"GENERAL","notes":"","agreement":"NO","lat":"38.8844721","lon":"-7.001412677307713"},
{"codCNH":"60037","name":"HOSPITAL MATERNO INFANTIL","idRegion":"ES431","phone":"924215000","fax":"924215054","beds":0.0,"type":"MATERNO-INFANTIL","notes":"","agreement":"NO","lat":"","lon":""},
{"codCNH":"60172","name":"HOSPITAL QUIRONSALUD CLIDEBA","idRegion":"ES431","phone":"924229050","fax":"924257859","beds":73.0,"type":"GENERAL","notes":"","agreement":"SI","lat":"","lon":""},
{"codCNH":"60286","name":"CLÍNICA EXTREMEÑA DE SALUD","idRegion":"ES431","phone":"924211818","fax":"924270888","beds":20.0,"type":"GENERAL","notes":"","agreement":"SI","lat":"","lon":""},
{"codCNH":"60220","name":"HOSPITAL PERPETUO SOCORRO","idRegion":"ES431","phone":"924215000","fax":"924215024","beds":0.0,"type":"GENERAL","notes":"","agreement":"NO","lat":"38.989612799999996","lon":"-1.8720842677027667"},
{"codCNH":"81347","name":"HOSPITAL UNIVERSITARI VALL D'HEBRON","idRegion":"ES511","phone":"934894524","fax":"934894401","beds":1315.0,"type":"GENERAL","notes":"","agreement":"","lat":"","lon":""},
{"codCNH":"80431","name":"HOSPITAL PLATÓ","idRegion":"ES511","phone":"933069900","fax":"932005154","beds":168.0,"type":"GENERAL","notes":"","agreement":"","lat":"41.4016023","lon":"2.1418871"},
{"codCNH":"80410","name":"CENTRE MÈDIC SANT JORDI DE SANT ANDREU","idRegion":"ES511","phone":"933451604","fax":"932740496","beds":57.0,"type":"GENERAL","notes":"","agreement":"NO","lat":"","lon":""},
{"codCNH":"80403","name":"CENTRE  MÈDIC  DELFOS","idRegion":"ES511","phone":"932545000","fax":"934340675","beds":264.0,"type":"GENERAL","notes":"","agreement":"NO","lat":"","lon":""},
{"codCNH":"80399","name":"HOSPITAL QUIRÓNSALUD BARCELONA","idRegion":"ES511","phone":"932850000","fax":"932107561","beds":192.0,"type":"GENERAL","notes":"","agreement":"NO","lat":"41.4158431","lon":"2.1384866665155404"},
{"codCNH":"80386","name":"CLÍNICA TRES TORRES","idRegion":"ES511","phone":"932041300","fax":"932806488","beds":64.0,"type":"GENERAL","notes":"","agreement":"NO","lat":"41.61752165","lon":"2.293622063337013"},
{"codCNH":"80370","name":"CLÍNICA CORACHAN","idRegion":"ES511","phone":"932545800","fax":"932801455","beds":162.0,"type":"GENERAL","notes":"","agreement":"NO","lat":"41.3938163","lon":"2.130591235346064"},
{"codCNH":"80364","name":"HOSPITAL UNIVERSITARI SAGRAT COR","idRegion":"ES511","phone":"933221111","fax":"934948969","beds":367.0,"type":"GENERAL","notes":"","agreement":"","lat":"","lon":""},
{"codCNH":"80351","name":"HESTIA PALAU.","idRegion":"ES511","phone":"934501819","fax":"934358505","beds":317.0,"type":"GERIATRÍA Y/O LARGA ESTANCIA","notes":"","agreement":"NO","lat":"","lon":""},
{"codCNH":"80348","name":"FUNDACIÓ PUIGVERT - IUNA","idRegion":"ES511","phone":"934169700","fax":"934169730","beds":124.0,"type":"OTROS MONOGRÁFICOS","notes":"","agreement":"","lat":"41.41291015","lon":"2.172711151495132"},
{"codCNH":"80327","name":"HOSPITAL DE NENS DE BARCELONA","idRegion":"ES511","phone":"932310512","fax":"932655017","beds":18.0,"type":"INFANTIL","notes":"","agreement":"NO","lat":"41.397087899999995","lon":"2.1733002999999997"},
{"codCNH":"80312","name":"NOU HOSPITAL EVANGÈLIC","idRegion":"ES511","phone":"932859955","fax":"932194026","beds":116.0,"type":"GERIATRÍA Y/O LARGA ESTANCIA","notes":"","agreement":"NO","lat":"","lon":""},
{"codCNH":"80291","name":"HOSPITAL DE LA SANTA CREU I SANT PAU","idRegion":"ES511","phone":"935537160","fax":"932919427","beds":644.0,"type":"GENERAL","notes":"","agreement":"","lat":"41.4139764","lon":"2.1755471851785164"},
{"codCNH":"80044","name":"HOSPITAL CLÍNIC DE BARCELONA, SEU SABINO DE ARANA","idRegion":"ES511","phone":"932275600","fax":"932275605","beds":130.0,"type":"MATERNO-INFANTIL","notes":"","agreement":"","lat":"","lon":""},
{"codCNH":"80641","name":"CLÍNICA PLANAS","idRegion":"ES511","phone":"932032812","fax":"932057018","beds":26.0,"type":"QUIRÚRGICO","notes":"","agreement":"NO","lat":"41.3997968","lon":"2.1155960820746547"},
{"codCNH":"80575","name":"CLÍNICA COROLEU - SSR HESTIA.","idRegion":"ES511","phone":"931165500","fax":"933112005","beds":74.0,"type":"PSIQUIÁTRICO","notes":"","agreement":"NO","lat":"","lon":""},
{"codCNH":"80556","name":"SERVEIS CLÍNICS, S.A.","idRegion":"ES511","phone":"934174602","fax":"934189172","beds":50.0,"type":"GERIATRÍA Y/O LARGA ESTANCIA","notes":"","agreement":"NO","lat":"","lon":""},
{"codCNH":"80538","name":"CENTRE D'OFTALMOLOGIA BARRAQUER","idRegion":"ES511","phone":"932095311","fax":"932002469","beds":70.0,"type":"OFTÁLMICO U ORL","notes":"","agreement":"NO","lat":"","lon":""},
{"codCNH":"80497","name":"CENTRE HOSPITALARI POLICLÍNICA BARCELONA","idRegion":"ES511","phone":"934161616","fax":"932184448","beds":28.0,"type":"GENERAL","notes":"","agreement":"NO","lat":"","lon":""},
{"codCNH":"80484","name":"HOSPITAL  DE  BARCELONA","idRegion":"ES511","phone":"932542400","fax":"932542402","beds":350.0,"type":"GENERAL","notes":"","agreement":"NO","lat":"41.3899084","lon":"2.1297145497467387"},
{"codCNH":"80478","name":"CENTRO MÉDICO TEKNON,  GRUPO QUIRONSALUD","idRegion":"ES511","phone":"932906242","fax":"932112690","beds":285.0,"type":"GENERAL","notes":"","agreement":"NO","lat":"","lon":""},
{"codCNH":"80446","name":"HOSPITAL UNIVERSITARI QUIRÓN DEXEUS","idRegion":"ES511","phone":"932274747","fax":"932111654","beds":170.0,"type":"GENERAL","notes":"","agreement":"NO","lat":"41.38482485","lon":"2.1257692963662347"},
{"codCNH":"81830","name":"CENTRE SOCIOSANITARI BLAUCLÍNIC DOLORS ALEU","idRegion":"ES511","phone":"934343216","fax":"","beds":174.0,"type":"GERIATRÍA Y/O LARGA ESTANCIA","notes":"","agreement":"NO","lat":"","lon":""},
{"codCNH":"81829","name":"CENTRE FÒRUM","idRegion":"ES511","phone":"932483000","fax":"","beds":223.0,"type":"GERIATRÍA Y/O LARGA ESTANCIA","notes":"","agreement":"NO","lat":"","lon":""},
{"codCNH":"81818","name":"CENTRE RESIDENCIAL AMMA DIAGONAL","idRegion":"ES511","phone":"933209630","fax":"","beds":5.0,"type":"GERIATRÍA Y/O LARGA ESTANCIA","notes":"","agreement":"NO","lat":"","lon":""},
{"codCNH":"81762","name":"HESTIA GRÀCIA","idRegion":"ES511","phone":"934170400","fax":"932110065","beds":153.0,"type":"GERIATRÍA Y/O LARGA ESTANCIA","notes":"","agreement":"NO","lat":"","lon":""},
{"codCNH":"81751","name":"CLÍNICA CREU BLANCA","idRegion":"ES511","phone":"932522522","fax":"932042187","beds":51.0,"type":"GENERAL","notes":"","agreement":"NO","lat":"41.397948","lon":"2.1187401939937693"},
{"codCNH":"81740","name":"SAR LA SALUT JOSEP SERVAT","idRegion":"ES511","phone":"932857512","fax":"","beds":56.0,"type":"GERIATRÍA Y/O LARGA ESTANCIA","notes":"","agreement":"NO","lat":"","lon":""},
{"codCNH":"81706","name":"CENTRE COLLSEROLA MUTUAL","idRegion":"ES511","phone":"933613900","fax":"933613913","beds":34.0,"type":"GERIATRÍA Y/O LARGA ESTANCIA","notes":"","agreement":"NO","lat":"","lon":""},
{"codCNH":"81672","name":"HOSPITAL  SANITAS CIMA","idRegion":"ES511","phone":"935522700","fax":"935522749","beds":83.0,"type":"GENERAL","notes":"","agreement":"NO","lat":"","lon":""},
{"codCNH":"81649","name":"HOSPITAL SOCIOSANITARI PERE VIRGILI","idRegion":"ES511","phone":"932594000","fax":"932594005","beds":366.0,"type":"GERIATRÍA Y/O LARGA ESTANCIA","notes":"","agreement":"NO","lat":"","lon":""},
{"codCNH":"82224","name":"SARQUAVITAE BONANOVA","idRegion":"ES511","phone":"932534940","fax":"","beds":28.0,"type":"GERIATRÍA Y/O LARGA ESTANCIA","notes":"","agreement":"NO","lat":"","lon":""},
{"codCNH":"82246","name":"UNITAT TERAPÈUTICA-EDUCATIVA ACOMPANYA'M","idRegion":"ES511","phone":"932532100","fax":"","beds":30.0,"type":"PSIQUIÁTRICO","notes":"","agreement":"NO","lat":"","lon":""},
{"codCNH":"82134","name":"ITA MARESME","idRegion":"ES511","phone":"933621258","fax":"933621259","beds":56.0,"type":"OTROS MONOGRÁFICOS","notes":"","agreement":"NO","lat":"41.54705145","lon":"2.3992675917026003"},
{"codCNH":"81964","name":"UNITAT POLIVALENT SALUT MENTAL BARCELONA-NORD","idRegion":"ES511","phone":"934275250","fax":"934271078","beds":52.0,"type":"PSIQUIÁTRICO","notes":"","agreement":"NO","lat":"","lon":""},
{"codCNH":"81953","name":"MAPFRE QUAVITAE BARCELONA","idRegion":"ES511","phone":"934579400","fax":"","beds":38.0,"type":"GERIATRÍA Y/O LARGA ESTANCIA","notes":"","agreement":"NO","lat":"","lon":""},
{"codCNH":"81942","name":"LEPANT RESIDENCIAL QGG, SL","idRegion":"ES511","phone":"934507438","fax":"","beds":10.0,"type":"GERIATRÍA Y/O LARGA ESTANCIA","notes":"","agreement":"NO","lat":"","lon":""},
{"codCNH":"82045","name":"CENTRE SOCIOSANITARI STAUROS","idRegion":"ES511","phone":"931171074","fax":"935157429","beds":49.0,"type":"GERIATRÍA Y/O LARGA ESTANCIA","notes":"","agreement":"NO","lat":"","lon":""},
{"codCNH":"80155","name":"CLÍNICA MC LONDRES","idRegion":"ES511","phone":"934577200","fax":"","beds":22.0,"type":"GENERAL","notes":"","agreement":"NO","lat":"","lon":""},
{"codCNH":"82099","name":"AMMA HORTA","idRegion":"ES511","phone":"934280092","fax":"934278466","beds":5.0,"type":"GERIATRÍA Y/O LARGA ESTANCIA","notes":"","agreement":"NO","lat":"","lon":""},
{"codCNH":"82156","name":"CLÍNICA SANT ANTONI","idRegion":"ES511","phone":"932974010","fax":"","beds":224.0,"type":"GERIATRÍA Y/O LARGA ESTANCIA","notes":"","agreement":"NO","lat":"41.35574075","lon":"2.143518837467301"},
{"codCNH":"82145","name":"CENTRE SOCIOSANITARI DEL CENTRE INTEGRAL DE SALUT COTXERES","idRegion":"ES511","phone":"932438991","fax":"932438992","beds":209.0,"type":"GERIATRÍA Y/O LARGA ESTANCIA","notes":"","agreement":"NO","lat":"","lon":""},
{"codCNH":"82189","name":"CENTRE SOCIOSANITARI ISABEL ROIG","idRegion":"ES511","phone":"931780667","fax":"","beds":251.0,"type":"GERIATRÍA Y/O LARGA ESTANCIA","notes":"","agreement":"NO","lat":"","lon":""},
{"codCNH":"81874","name":"CLÍNICA GALATEA","idRegion":"ES511","phone":"932057267","fax":"","beds":22.0,"type":"PSIQUIÁTRICO","notes":"","agreement":"NO","lat":"41.410765100000006","lon":"2.113648564322156"},
{"codCNH":"80266","name":"CLÍNICA  SOLARIUM","idRegion":"ES511","phone":"934172007","fax":"934177006","beds":44.0,"type":"GERIATRÍA Y/O LARGA ESTANCIA","notes":"","agreement":"NO","lat":"43.30950325000001","lon":"-3.0521145738607176"},
{"codCNH":"80253","name":"HOSPITAL MARE DE DÉU DE LA MERCÈ","idRegion":"ES511","phone":"934275250","fax":"934271078","beds":113.0,"type":"PSIQUIÁTRICO","notes":"","agreement":"NO","lat":"41.43787445","lon":"2.1616093105823992"},
{"codCNH":"80235","name":"CLÍNICA SAGRADA FAMÍLIA","idRegion":"ES511","phone":"932122300","fax":"932124050","beds":150.0,"type":"GENERAL","notes":"","agreement":"NO","lat":"41.40045255","lon":"2.134144004161134"},
{"codCNH":"80229","name":"CLÍNICA NOSTRA SENYORA DEL REMEI","idRegion":"ES511","phone":"932850010","fax":"932191083","beds":134.0,"type":"GENERAL","notes":"","agreement":"NO","lat":"41.40965015","lon":"2.159804322506716"},
{"codCNH":"80214","name":"HOSPITAL SANT RAFAEL","idRegion":"ES511","phone":"932112508","fax":"934188448","beds":213.0,"type":"GENERAL","notes":"","agreement":"","lat":"41.4257921","lon":"2.140613685657096"},
{"codCNH":"80180","name":"HOSPITAL EL PILAR","idRegion":"ES511","phone":"932360500","fax":"","beds":186.0,"type":"GENERAL","notes":"","agreement":"NO","lat":"","lon":""},
{"codCNH":"80174","name":"HOSPITAL DOS DE MAIG","idRegion":"ES511","phone":"935072700","fax":"934369026","beds":229.0,"type":"GENERAL","notes":"","agreement":"","lat":"41.4109133","lon":"2.1765803"},
{"codCNH":"80168","name":"HOSPITAL EGARSAT SANT HONORAT","idRegion":"ES511","phone":"932127000","fax":"934186478","beds":14.0,"type":"GENERAL","notes":"","agreement":"NO","lat":"","lon":""},
{"codCNH":"80142","name":"CLÍNICA MC COPÈRNIC","idRegion":"ES511","phone":"934141992","fax":"932000694","beds":60.0,"type":"GENERAL","notes":"","agreement":"NO","lat":"","lon":""},
{"codCNH":"80116","name":"HOSPITAL FREMAP BARCELONA","idRegion":"ES511","phone":"934169100","fax":"934160214","beds":62.0,"type":"GENERAL","notes":"","agreement":"NO","lat":"41.4139764","lon":"2.1755471851785164"},
{"codCNH":"80109","name":"HOSPITAL CLÍNIC DE BARCELONA","idRegion":"ES511","phone":"932275400","fax":"932275454","beds":844.0,"type":"GENERAL","notes":"","agreement":"","lat":"41.388061799999996","lon":"2.1506392999999995"},
{"codCNH":"81931","name":"CENTRE SOCIOSANITARI SANT JORDI DE LA VALL D'HEBRON","idRegion":"ES511","phone":"934280000","fax":"934284017","beds":57.0,"type":"GERIATRÍA Y/O LARGA ESTANCIA","notes":"","agreement":"NO","lat":"","lon":""},
{"codCNH":"81920","name":"CENTRE INTEGRAL DE SERVEIS EN SALUT MENTAL COMUNITÀRIA","idRegion":"ES511","phone":"932184908","fax":"934151375","beds":25.0,"type":"PSIQUIÁTRICO","notes":"","agreement":"NO","lat":"","lon":""},
{"codCNH":"80060","name":"HOSPITAL DE L'ESPERANÇA.","idRegion":"ES511","phone":"933674100","fax":"932190003","beds":161.0,"type":"GENERAL","notes":"","agreement":"","lat":"41.41068015000001","lon":"2.154710090626136"},
{"codCNH":"80057","name":"HOSPITAL DEL MAR.","idRegion":"ES511","phone":"932483000","fax":"932483254","beds":470.0,"type":"GENERAL","notes":"","agreement":"","lat":"41.38358700000001","lon":"2.194025106793207"},
{"codCNH":"81593","name":"PARC SANITARI SANT JOAN DE DÉU - NUMÀNCIA","idRegion":"ES511","phone":"933249600","fax":"933249603","beds":159.0,"type":"PSIQUIÁTRICO","notes":"","agreement":"NO","lat":"","lon":""},
{"codCNH":"81574","name":"CLÍNICA LLÚRIA","idRegion":"ES511","phone":"934882142","fax":"934878894","beds":40.0,"type":"PSIQUIÁTRICO","notes":"","agreement":"NO","lat":"42.2285092","lon":"1.7357083999999998"},
{"codCNH":"81496","name":"REGINA SAR","idRegion":"ES511","phone":"932848635","fax":"932846051","beds":12.0,"type":"GERIATRÍA Y/O LARGA ESTANCIA","notes":"","agreement":"NO","lat":"","lon":""},
{"codCNH":"81379","name":"HOSPITAL SOCIOSANITARI MUTUAM GÜELL","idRegion":"ES511","phone":"932133400","fax":"932102320","beds":167.0,"type":"GERIATRÍA Y/O LARGA ESTANCIA","notes":"","agreement":"NO","lat":"","lon":""},
{"codCNH":"480123","name":"CLÍNICA GUIMON S.A.","idRegion":"ES213","phone":"944215200","fax":"944431063","beds":47.0,"type":"GENERAL","notes":"","agreement":"NO","lat":"","lon":""},
{"codCNH":"480025","name":"HOSPITAL INTERMUTUAL DE EUSKADI","idRegion":"ES213","phone":"944132380","fax":"944466767","beds":44.0,"type":"GENERAL","notes":"","agreement":"NO","lat":"","lon":""},
{"codCNH":"480031","name":"CLÍNICA ERCILLA MUTUALIA","idRegion":"ES213","phone":"944252500","fax":"944252534","beds":23.0,"type":"TRAUMATOLOGÍA Y/O REHABILITACIÓN","notes":"","agreement":"SI","lat":"43.26501445","lon":"-2.9311921255067386"},
{"codCNH":"480046","name":"HOSPITAL CRUZ ROJA DE BILBAO","idRegion":"ES213","phone":"944434792","fax":"944223771","beds":68.0,"type":"GENERAL","notes":"","agreement":"SI","lat":"","lon":""},
{"codCNH":"480059","name":"SANATORIO BILBAÍNO","idRegion":"ES213","phone":"944430150","fax":"944216822","beds":40.0,"type":"GENERAL","notes":"","agreement":"SI","lat":"","lon":""},
{"codCNH":"480316","name":"CLÍNICA IMQ  ZORROTZAURRE","idRegion":"ES213","phone":"944755000","fax":"944479297","beds":175.0,"type":"GENERAL","notes":"","agreement":"NO","lat":"43.26152570000001","lon":"-2.9410255000000003"},
{"codCNH":"480160","name":"CLÍNICA INDAUTXU","idRegion":"ES213","phone":"944445012","fax":"944702824","beds":30.0,"type":"GENERAL","notes":"","agreement":"NO","lat":"43.26295125","lon":"-2.9421176930180137"},
{"codCNH":"480010","name":"HOSPITAL SANTA MARINA","idRegion":"ES213","phone":"944006900","fax":"944006926","beds":245.0,"type":"GERIATRÍA Y/O LARGA ESTANCIA","notes":"","agreement":"NO","lat":"43.2623385","lon":"-2.8821925549865117"},
{"codCNH":"480097","name":"IMQ CLÍNICA VIRGEN BLANCA","idRegion":"ES213","phone":"944127011","fax":"944126559","beds":74.0,"type":"GENERAL","notes":"","agreement":"SI","lat":"","lon":""},
{"codCNH":"480078","name":"HOSPITAL DE BASURTO","idRegion":"ES213","phone":"944006000","fax":"944006180","beds":733.0,"type":"GENERAL","notes":"","agreement":"NO","lat":"43.26161145","lon":"-2.9532896243845768"},
{"codCNH":"90026","name":"HOSPITAL FUENTE BERMEJA","idRegion":"ES412","phone":"947256236","fax":"947208341","beds":0.0,"type":"PSIQUIÁTRICO","notes":"","agreement":"SI","lat":"28.3454257","lon":"-16.838398"},
{"codCNH":"90047","name":"HOSPITAL RECOLETAS DE BURGOS","idRegion":"ES412","phone":"947244055","fax":"947240424","beds":92.0,"type":"GENERAL","notes":"","agreement":"SI","lat":"42.34417345","lon":"-3.68296227310844"},
{"codCNH":"90050","name":"HOSPITAL SAN JUAN DE DIOS DE BURGOS","idRegion":"ES412","phone":"947257730","fax":"947273009","beds":160.0,"type":"GERIATRÍA Y/O LARGA ESTANCIA","notes":"","agreement":"SI","lat":"42.3393822","lon":"-3.7106959183961297"},
{"codCNH":"90133","name":"COMPLEJO ASISTENCIAL UNIVERSITARIO DE BURGOS","idRegion":"ES412","phone":"947281800","fax":"947281829","beds":865.0,"type":"GENERAL","notes":"","agreement":"NO","lat":"","lon":""},
{"codCNH":"90155","name":"HOSPITAL UNIVERSITARIO DE BURGOS","idRegion":"ES412","phone":"947281800","fax":"947281829","beds":0.0,"type":"GENERAL","notes":"","agreement":"NO","lat":"42.3613402","lon":"-3.6855070886054726"},
{"codCNH":"100089","name":"COMPLEJO HOSPITALARIO DE CÁCERES","idRegion":"ES432","phone":"927256200","fax":"927256202","beds":520.0,"type":"GENERAL","notes":"","agreement":"NO","lat":"","lon":""},
{"codCNH":"100092","name":"HOSPITAL QUIRÓN SALUD DE CÁCERES","idRegion":"ES432","phone":"927181360","fax":"927181362","beds":35.0,"type":"GENERAL","notes":"","agreement":"SI","lat":"","lon":""},
{"codCNH":"100113","name":"CLINICA QUIRÚRGICA CACEREÑA, S.A-(CLÍNICA SAN FRANCISCO)","idRegion":"ES432","phone":"927012200","fax":"927012239","beds":32.0,"type":"GENERAL","notes":"","agreement":"NO","lat":"","lon":""},
{"codCNH":"110051","name":"HOSPITAL SAN RAFAEL","idRegion":"ES612","phone":"956017267","fax":"956017390","beds":280.0,"type":"GENERAL","notes":"","agreement":"SI","lat":"","lon":""},
{"codCNH":"110048","name":"CLÍNICA LA SALUD","idRegion":"ES612","phone":"956225301","fax":"956225193","beds":58.0,"type":"GENERAL","notes":"","agreement":"NO","lat":"36.5320531","lon":"-6.29551843968164"},
{"codCNH":"110012","name":"HOSPITAL UNIVERSITARIO PUERTA DEL MAR","idRegion":"ES612","phone":"956002040","fax":"956002220","beds":738.0,"type":"GENERAL","notes":"","agreement":"NO","lat":"36.50918455","lon":"-6.277904865316897"},
{"codCNH":"120038","name":"HOSPITAL LA MAGDALENA","idRegion":"ES522","phone":"964356800","fax":"964356835","beds":128.0,"type":"GERIATRÍA Y/O LARGA ESTANCIA","notes":"","agreement":"NO","lat":"","lon":""},
{"codCNH":"120017","name":"HOSPITAL GENERAL UNIVERSITARIO DE CASTELLÓN","idRegion":"ES522","phone":"964725000","fax":"964725026","beds":580.0,"type":"GENERAL","notes":"","agreement":"NO","lat":"","lon":""},
{"codCNH":"120043","name":"CONSORCIO HOSPITALARIO PROVINCIAL DE CASTELLÓN","idRegion":"ES522","phone":"964359700","fax":"964354301","beds":257.0,"type":"GENERAL","notes":"","agreement":"NO","lat":"","lon":""},
{"codCNH":"120148","name":"INSTITUTO DE TRAUMATOLOGIA DE UNIÓN DE MUTUAS (MATEPSS Nº 267)","idRegion":"ES522","phone":"964231212","fax":"964230624","beds":28.0,"type":"TRAUMATOLOGÍA Y/O REHABILITACIÓN","notes":"","agreement":"NO","lat":"","lon":""},
{"codCNH":"120159","name":"HOSPITAL REY D. JAIME","idRegion":"ES522","phone":"964726000","fax":"964228000","beds":96.0,"type":"GENERAL","notes":"","agreement":"SI","lat":"40.429221999999996","lon":"-3.7239872000000003"},
{"codCNH":"510039","name":"HOSPITAL UNIVERSITARIO DE CEUTA","idRegion":"ES630","phone":"856907000","fax":"856907066","beds":252.0,"type":"GENERAL","notes":"","agreement":"NO","lat":"35.8803226","lon":"-5.3418945914881935"},
{"codCNH":"130034","name":"SERVICIOS SANITARIOS Y ASISTENCIALES","idRegion":"ES422","phone":"926231276","fax":"926252002","beds":85.0,"type":"PSIQUIÁTRICO","notes":"","agreement":"NO","lat":"","lon":""},
{"codCNH":"130049","name":"HOSPITAL QUIRÓNSALUD CIUDAD REAL","idRegion":"ES422","phone":"926255008","fax":"926250312","beds":47.0,"type":"GENERAL","notes":"","agreement":"SI","lat":"","lon":""},
{"codCNH":"130127","name":"HOSPITAL GENERAL DE CIUDAD REAL","idRegion":"ES422","phone":"926278000","fax":"926278501","beds":564.0,"type":"GENERAL","notes":"","agreement":"NO","lat":"38.97002620000001","lon":"-3.9315470466968576"},
{"codCNH":"140230","name":"HOSPITAL GENERAL DEL H.U. REINA SOFÍA","idRegion":"ES613","phone":"957010380","fax":"957010340","beds":0.0,"type":"GENERAL","notes":"","agreement":"NO","lat":"","lon":""},
{"codCNH":"140023","name":"HOSPITAL UNIVERSITARIO REINA SOFÍA","idRegion":"ES613","phone":"957010380","fax":"957010340","beds":1233.0,"type":"GENERAL","notes":"","agreement":"NO","lat":"37.86840305","lon":"-4.797182952409715"},
{"codCNH":"140076","name":"HOSPITAL DE LA CRUZ ROJA DE CÓRDOBA","idRegion":"ES613","phone":"957420666","fax":"957293993","beds":138.0,"type":"GENERAL","notes":"","agreement":"NO","lat":"","lon":""},
{"codCNH":"140082","name":"HOSPITAL SAN JUAN DE DIOS DE CÓRDOBA","idRegion":"ES613","phone":"957274600","fax":"957283010","beds":189.0,"type":"GENERAL","notes":"","agreement":"SI","lat":"37.9094628","lon":"-4.792721947860593"},
{"codCNH":"140039","name":"HOSPITAL LOS MORALES","idRegion":"ES613","phone":"957012042","fax":"","beds":0.0,"type":"GENERAL","notes":"","agreement":"NO","lat":"37.93415665","lon":"-4.804865865801263"},
{"codCNH":"140060","name":"HOSPITAL PROVINCIAL","idRegion":"ES613","phone":"957011604","fax":"957011600","beds":0.0,"type":"GENERAL","notes":"","agreement":"NO","lat":"41.6521802","lon":"-0.8870832026134046"},
{"codCNH":"140241","name":"HOSPITAL QUIRONSALUD CÓRDOBA","idRegion":"ES613","phone":"957410000","fax":"","beds":115.0,"type":"GENERAL","notes":"","agreement":"NO","lat":"37.8724141","lon":"-4.80204"},
{"codCNH":"140207","name":"HOSPITAL LA ARRUZAFA-INSTITUTO DE OFTALMOLOGÍA","idRegion":"ES613","phone":"957767610","fax":"957401407","beds":4.0,"type":"OFTÁLMICO U ORL","notes":"","agreement":"SI","lat":"","lon":""},
{"codCNH":"140044","name":"HOSPITAL MATERNO-INFANTIL DEL H.U. REINA SOFÍA","idRegion":"ES613","phone":"957010380","fax":"957010340","beds":0.0,"type":"MATERNO-INFANTIL","notes":"","agreement":"NO","lat":"","lon":""},
{"codCNH":"150011","name":"COMPLEXO HOSPITALARIO UNIVERSITARIO A CORUÑA","idRegion":"ES113","phone":"981178000","fax":"981178001","beds":1341.0,"type":"GENERAL","notes":"","agreement":"NO","lat":"43.34411695","lon":"-8.388401883763521"},
{"codCNH":"150026","name":"HOSPITAL UNIVERSITARIO A CORUÑA","idRegion":"ES113","phone":"981178000","fax":"981178001","beds":0.0,"type":"GENERAL","notes":"","agreement":"NO","lat":"43.344199100000004","lon":"-8.386919"},
{"codCNH":"150032","name":"HOSPITAL TERESA HERRERA (MATERNO-INFANTIL)","idRegion":"ES113","phone":"981178000","fax":"981178001","beds":0.0,"type":"GENERAL","notes":"","agreement":"NO","lat":"","lon":""},
{"codCNH":"150047","name":"HOSPITAL MARITIMO DE OZA","idRegion":"ES113","phone":"981178000","fax":"981178001","beds":0.0,"type":"GENERAL","notes":"","agreement":"NO","lat":"43.3465533","lon":"-8.38511137869949"},
{"codCNH":"150050","name":"CENTRO ONCOLOXICO DE GALICIA","idRegion":"ES113","phone":"981287499","fax":"981287122","beds":56.0,"type":"ONCOLÓGICO","notes":"","agreement":"SI","lat":"43.33679955","lon":"-8.390590473488277"},
{"codCNH":"150063","name":"HOSPITAL QUIRONSALUD A CORUÑA","idRegion":"ES113","phone":"981219800","fax":"981133586","beds":127.0,"type":"GENERAL","notes":"","agreement":"SI","lat":"43.3288654","lon":"-8.400100182939795"},
{"codCNH":"150079","name":"HOSPITAL SAN RAFAEL","idRegion":"ES113","phone":"981179000","fax":"981283688","beds":120.0,"type":"GENERAL","notes":"","agreement":"SI","lat":"","lon":""},
{"codCNH":"150085","name":"HOSPITAL HM MODELO","idRegion":"ES113","phone":"981147300","fax":"981264920","beds":0.0,"type":"GENERAL","notes":"","agreement":"SI","lat":"","lon":""},
{"codCNH":"150102","name":"MATERNIDAD HM BELEN","idRegion":"ES113","phone":"981251600","fax":"981255155","beds":0.0,"type":"GENERAL","notes":"","agreement":"SI","lat":"","lon":""},
{"codCNH":"150124","name":"HOSPITAL ABENTE Y LAGO","idRegion":"ES113","phone":"981178000","fax":"981178001","beds":0.0,"type":"GENERAL","notes":"","agreement":"NO","lat":"43.3683076","lon":"-8.3897842"},
{"codCNH":"150354","name":"HM MODELO (GRUPO)","idRegion":"ES113","phone":"981147300","fax":"981264920","beds":146.0,"type":"GENERAL","notes":"","agreement":"SI","lat":"","lon":""},
{"codCNH":"160053","name":"HOSPITAL RECOLETAS CUENCA S.L.U.","idRegion":"ES423","phone":"969240559","fax":"969213752","beds":30.0,"type":"MÉDICO-QUIRÚRGICO","notes":"","agreement":"SI","lat":"","lon":""},
{"codCNH":"160014","name":"HOSPITAL VIRGEN DE LA LUZ","idRegion":"ES423","phone":"969179900","fax":"","beds":388.0,"type":"GENERAL","notes":"","agreement":"NO","lat":"40.0759593","lon":"-2.1479837268486675"},
{"codCNH":"200104","name":"POLICLÍNICA GIPUZKOA, S.A.","idRegion":"ES212","phone":"943002851","fax":"943002859","beds":149.0,"type":"GENERAL","notes":"","agreement":"SI","lat":"43.289849","lon":"-1.9816304255500448"},
{"codCNH":"200071","name":"HOSPITAL RICARDO BERMINGHAM (FUNDACIÓN MATIA)","idRegion":"ES212","phone":"943317100","fax":"943312701","beds":105.0,"type":"GERIATRÍA Y/O LARGA ESTANCIA","notes":"","agreement":"NO","lat":"","lon":""},
{"codCNH":"200049","name":"MUTUALIA-CLINICA PAKEA","idRegion":"ES212","phone":"943212600","fax":"943211188","beds":29.0,"type":"QUIRÚRGICO","notes":"","agreement":"SI","lat":"","lon":""},
{"codCNH":"200261","name":"HOSPITAL UNIVERSITARIO DONOSTIA-DONOSTIA UNIBERTSITATE OSPITALEA","idRegion":"ES212","phone":"943007060","fax":"943007233","beds":1054.0,"type":"GENERAL","notes":"","agreement":"NO","lat":"","lon":""},
{"codCNH":"200126","name":"HOSPITAL QUIRÓN SALUD DONOSTIA","idRegion":"ES212","phone":"943437100","fax":"943437115","beds":48.0,"type":"GENERAL","notes":"","agreement":"SI","lat":"","lon":""},
{"codCNH":"200271","name":"HOSPITAL SAN JUAN DE DIOS DONOSTIA","idRegion":"ES212","phone":"943460033","fax":"943470814","beds":81.0,"type":"PSIQUIÁTRICO","notes":"","agreement":"SI","lat":"","lon":""},
{"codCNH":"200132","name":"FUNDACIÓN ONKOLOGIKOA FUNDAZIOA","idRegion":"ES212","phone":"943328000","fax":"943281278","beds":45.0,"type":"ONCOLÓGICO","notes":"","agreement":"SI","lat":"","lon":""},
{"codCNH":"170031","name":"CLÍNICA BOFILL","idRegion":"ES512","phone":"972204350","fax":"972208386","beds":47.0,"type":"GENERAL","notes":"","agreement":"NO","lat":"42.2642488","lon":"2.9622957999999997"},
{"codCNH":"170059","name":"CLÍNICA GIRONA","idRegion":"ES512","phone":"972204500","fax":"972206666","beds":123.0,"type":"GENERAL","notes":"","agreement":"","lat":"41.96332275","lon":"2.8111323500069805"},
{"codCNH":"170062","name":"CLÍNICA QUIRÚRGICA ONYAR","idRegion":"ES512","phone":"972204900","fax":"972222644","beds":38.0,"type":"GENERAL","notes":"","agreement":"NO","lat":"41.976558600000004","lon":"2.8249891"},
{"codCNH":"170221","name":"RESIDÈNCIA DE GENT GRAN PUIG D'EN ROCA","idRegion":"ES512","phone":"972209250","fax":"972202788","beds":55.0,"type":"GERIATRÍA Y/O LARGA ESTANCIA","notes":"","agreement":"NO","lat":"","lon":""},
{"codCNH":"170242","name":"RESIDÈNCIA GERIÀTRICA MARIA GAY","idRegion":"ES512","phone":"972205045","fax":"","beds":24.0,"type":"GERIATRÍA Y/O LARGA ESTANCIA","notes":"","agreement":"NO","lat":"","lon":""},
{"codCNH":"170255","name":"HOSPITAL SOCIOSANITARI MUTUAM GIRONA","idRegion":"ES512","phone":"972171819","fax":"972171068","beds":90.0,"type":"GERIATRÍA Y/O LARGA ESTANCIA","notes":"","agreement":"NO","lat":"","lon":""},
{"codCNH":"170299","name":"INSTITUT CATALÀ D'ONCOLOGIA GIRONA - HOSPITAL JOSEP TRUETA","idRegion":"ES512","phone":"972940200","fax":"972940270","beds":26.0,"type":"ONCOLÓGICO","notes":"","agreement":"","lat":"","lon":""},
{"codCNH":"170010","name":"HOSPITAL UNIVERSITARI DE GIRONA DR. JOSEP TRUETA","idRegion":"ES512","phone":"972940200","fax":"972940270","beds":431.0,"type":"GENERAL","notes":"","agreement":"","lat":"","lon":""},
{"codCNH":"180114","name":"HOSPITAL UNIVERSITARIO VIRGEN DE LAS NIEVES","idRegion":"ES614","phone":"958020000","fax":"958020132","beds":711.0,"type":"GENERAL","notes":"","agreement":"NO","lat":"37.19293935","lon":"-3.607182001187311"},
{"codCNH":"180146","name":"HOSPITAL VITHAS LA SALUD","idRegion":"ES614","phone":"958001450","fax":"958808890","beds":77.0,"type":"GENERAL","notes":"","agreement":"NO","lat":"","lon":""},
{"codCNH":"180150","name":"HOSPITAL UNIVERSITARIO SAN CECILIO","idRegion":"ES614","phone":"958020000","fax":"958020132","beds":543.0,"type":"GENERAL","notes":"","agreement":"NO","lat":"","lon":""},
{"codCNH":"180166","name":"HOSPITAL MATERNO-INFANTIL VIRGEN DE LAS NIEVES","idRegion":"ES614","phone":"958020000","fax":"958020226","beds":0.0,"type":"MATERNO-INFANTIL","notes":"","agreement":"NO","lat":"","lon":""},
{"codCNH":"180016","name":"HOSPITAL GENERAL DEL H.U. VIRGEN DE LAS NIEVES","idRegion":"ES614","phone":"958020000","fax":"958020132","beds":0.0,"type":"GENERAL","notes":"","agreement":"NO","lat":"","lon":""},
{"codCNH":"180042","name":"HOSPITAL DE NEUROTRAUMATOLOGÍA Y REHABILITACIÓN","idRegion":"ES614","phone":"958022339","fax":"958022305","beds":0.0,"type":"GENERAL","notes":"","agreement":"NO","lat":"37.193021","lon":"-3.607196974628616"},
{"codCNH":"180074","name":"HOSPITAL DE LA INMACULADA CONCEPCIÓN","idRegion":"ES614","phone":"958187700","fax":"958256368","beds":95.0,"type":"QUIRÚRGICO","notes":"","agreement":"NO","lat":"","lon":""},
{"codCNH":"180055","name":"HOSPITAL SAN RAFAEL","idRegion":"ES614","phone":"958275700","fax":"958209110","beds":166.0,"type":"GENERAL","notes":"","agreement":"SI","lat":"","lon":""},
{"codCNH":"190077","name":"INSTITUTO DE ENFERMEDADES NEUROLÓGICAS DE CASTILLA-LA MANCHA","idRegion":"ES424","phone":"949211500","fax":"949215409","beds":147.0,"type":"OTROS MONOGRÁFICOS","notes":"","agreement":"NO","lat":"40.641310499999996","lon":"-3.1724685088014626"},
{"codCNH":"190019","name":"HOSPITAL UNIVERSITARIO DE GUADALAJARA","idRegion":"ES424","phone":"949209200","fax":"949209218","beds":432.0,"type":"GENERAL","notes":"","agreement":"NO","lat":"40.62009929999999","lon":"-3.1523912999999997"},
{"codCNH":"190045","name":"CLÍNICA DR. SANZ VÁZQUEZ","idRegion":"ES424","phone":"949227200","fax":"","beds":40.0,"type":"GENERAL","notes":"","agreement":"NO","lat":"","lon":""},
{"codCNH":"190030","name":"CLÍNICA LA ANTIGUA","idRegion":"ES424","phone":"949223600","fax":"949218603","beds":57.0,"type":"GENERAL","notes":"","agreement":"SI","lat":"","lon":""},
{"codCNH":"210059","name":"HOSPITAL BLANCA PALOMA","idRegion":"ES615","phone":"959012100","fax":"959012125","beds":203.0,"type":"GENERAL","notes":"","agreement":"SI","lat":"40.3430021","lon":"-3.7175050000000005"},
{"codCNH":"210025","name":"HOSPITAL INFANTA ELENA","idRegion":"ES615","phone":"959015132","fax":"959015145","beds":304.0,"type":"GENERAL","notes":"","agreement":"NO","lat":"40.19951235","lon":"-3.697265943853283"},
{"codCNH":"210101","name":"HOSPITAL UNIVERSITARIO JUAN RAMÓN JIMÉNEZ","idRegion":"ES615","phone":"959016000","fax":"959016202","beds":891.0,"type":"GENERAL","notes":"","agreement":"NO","lat":"","lon":""},
{"codCNH":"210137","name":"HOSPITAL COSTA DE LA LUZ","idRegion":"ES615","phone":"959242100","fax":"959240652","beds":56.0,"type":"GENERAL","notes":"","agreement":"NO","lat":"","lon":""},
{"codCNH":"210084","name":"CLÍNICA LOS NARANJOS","idRegion":"ES615","phone":"959243900","fax":"959243099","beds":25.0,"type":"GENERAL","notes":"","agreement":"NO","lat":"37.262376700000004","lon":"-6.9493227"},
{"codCNH":"210031","name":"HOSPITAL VÁZQUEZ DÍAZ","idRegion":"ES615","phone":"959014603","fax":"959014649","beds":0.0,"type":"GENERAL","notes":"","agreement":"NO","lat":"37.28022205","lon":"-6.9215863706092"},
{"codCNH":"220041","name":"HOSPITAL VIAMED SANTIAGO","idRegion":"ES241","phone":"974220600","fax":"974703011","beds":40.0,"type":"GENERAL","notes":"","agreement":"SI","lat":"42.141452","lon":"-0.4169992456633053"},
{"codCNH":"220036","name":"HOSPITAL SAGRADO CORAZÓN DE JESÚS","idRegion":"ES241","phone":"974292000","fax":"974292009","beds":70.0,"type":"GERIATRÍA Y/O LARGA ESTANCIA","notes":"","agreement":"NO","lat":"","lon":""},
{"codCNH":"220020","name":"CENTRO DE REHAB. PSICOSOCIAL SANTO CRISTO DE LOS MILAGROS","idRegion":"ES241","phone":"974220772","fax":"974222604","beds":110.0,"type":"PSIQUIÁTRICO","notes":"","agreement":"NO","lat":"","lon":""},
{"codCNH":"220015","name":"HOSPITAL GENERAL SAN JORGE","idRegion":"ES241","phone":"974247000","fax":"974211365","beds":297.0,"type":"GENERAL","notes":"","agreement":"NO","lat":"","lon":""},
{"codCNH":"230151","name":"HOSPITAL MATERNO-INFANTIL DEL H.U. DE JAÉN","idRegion":"ES616","phone":"953008000","fax":"953008048","beds":0.0,"type":"MATERNO-INFANTIL","notes":"","agreement":"NO","lat":"","lon":""},
{"codCNH":"230119","name":"HOSPITAL UNIVERSITARIO DE JAÉN","idRegion":"ES616","phone":"953008010","fax":"953008048","beds":805.0,"type":"GENERAL","notes":"","agreement":"NO","lat":"","lon":""},
{"codCNH":"230011","name":"HOSPITAL GENERAL DEL H.U. DE JAÉN","idRegion":"ES616","phone":"953008000","fax":"953008048","beds":0.0,"type":"GENERAL","notes":"","agreement":"NO","lat":"","lon":""},
{"codCNH":"230047","name":"HOSPITAL NEUROTRAUMATOLÓGICO DEL H.U. DE JAÉN","idRegion":"ES616","phone":"953008000","fax":"953008048","beds":0.0,"type":"TRAUMATOLOGÍA Y/O REHABILITACIÓN","notes":"","agreement":"NO","lat":"37.7957185","lon":"-3.778470684892323"},
{"codCNH":"230026","name":"HOSPITAL DOCTOR SAGAZ","idRegion":"ES616","phone":"953008001","fax":"953008048","beds":0.0,"type":"GENERAL","notes":"","agreement":"NO","lat":"","lon":""},
{"codCNH":"230063","name":"CLÍNICA CRISTO REY","idRegion":"ES616","phone":"953250440","fax":"953250458","beds":39.0,"type":"QUIRÚRGICO","notes":"","agreement":"NO","lat":"37.77559155","lon":"-3.788789385541988"},
{"codCNH":"240093","name":"HOSPITAL SANTA ISABEL","idRegion":"ES413","phone":"987203000","fax":"987210405","beds":0.0,"type":"PSIQUIÁTRICO","notes":"","agreement":"NO","lat":"","lon":""},
{"codCNH":"240191","name":"COMPLEJO ASISTENCIAL UNIVERSITARIO DE LEÓN","idRegion":"ES413","phone":"987237400","fax":"987233322","beds":1056.0,"type":"GENERAL","notes":"","agreement":"NO","lat":"42.61935085","lon":"-5.5733385837293445"},
{"codCNH":"240074","name":"HOSPITAL HM SAN FRANCISCO","idRegion":"ES413","phone":"987202111","fax":"987251012","beds":75.0,"type":"GENERAL","notes":"","agreement":"SI","lat":"42.59001045","lon":"-5.572409309332597"},
{"codCNH":"240055","name":"REGLA HM HOSPITALES","idRegion":"ES413","phone":"987236900","fax":"987220002","beds":130.0,"type":"GENERAL","notes":"","agreement":"SI","lat":"","lon":""},
{"codCNH":"240021","name":"HOSPITAL MONTE SAN ISIDRO","idRegion":"ES413","phone":"987227250","fax":"987243252","beds":0.0,"type":"GERIATRÍA Y/O LARGA ESTANCIA","notes":"","agreement":"NO","lat":"42.6391611","lon":"-5.5939803033406985"},
{"codCNH":"240016","name":"HOSPITAL DE LEÓN","idRegion":"ES413","phone":"987237400","fax":"987233322","beds":0.0,"type":"GENERAL","notes":"","agreement":"NO","lat":"","lon":""},
{"codCNH":"250058","name":"CLÍNICA PERPETUO SOCORRO DE LÉRIDA, GRUPO HLA, SLU","idRegion":"ES513","phone":"973266100","fax":"973280757","beds":58.0,"type":"GENERAL","notes":"","agreement":"NO","lat":"","lon":""},
{"codCNH":"250061","name":"CLÍNICA TERRES DE PONENT","idRegion":"ES513","phone":"973232943","fax":"973238540","beds":123.0,"type":"GENERAL","notes":"","agreement":"","lat":"","lon":""},
{"codCNH":"250077","name":"CLÍNICA PSIQUIÀTRICA BELLAVISTA","idRegion":"ES513","phone":"973231698","fax":"973233364","beds":75.0,"type":"PSIQUIÁTRICO","notes":"","agreement":"NO","lat":"","lon":""},
{"codCNH":"250209","name":"HOSPITAL JAUME NADAL MEROLES","idRegion":"ES513","phone":"973289333","fax":"","beds":126.0,"type":"GERIATRÍA Y/O LARGA ESTANCIA","notes":"","agreement":"NO","lat":"41.61000225","lon":"0.6175042138349244"},
{"codCNH":"250019","name":"HOSPITAL UNIVERSITARI ARNAU DE VILANOVA DE LLEIDA.","idRegion":"ES513","phone":"973248100","fax":"973248754","beds":463.0,"type":"GENERAL","notes":"","agreement":"","lat":"41.6268968","lon":"0.6128942241724484"},
{"codCNH":"250045","name":"VITHAS HOSPITAL MONTSERRAT","idRegion":"ES513","phone":"973266300","fax":"973271870","beds":47.0,"type":"GENERAL","notes":"","agreement":"NO","lat":"41.612859","lon":"0.6204697705346297"},
{"codCNH":"250024","name":"HOSPITAL SANTA MARIA","idRegion":"ES513","phone":"973727222","fax":"973727223","beds":229.0,"type":"GENERAL","notes":"","agreement":"","lat":"","lon":""},
{"codCNH":"260012","name":"COMPLEJO HOSPITALARIO SAN MILLAN SAN PEDRO DE LA RIOJA","idRegion":"ES230","phone":"941298000","fax":"941298660","beds":590.0,"type":"GENERAL","notes":"","agreement":"NO","lat":"","lon":""},
{"codCNH":"260051","name":"POLICLÍNICO RIOJANO NUESTRA SEÑORA DE VALVANERA, S.A.","idRegion":"ES230","phone":"941211900","fax":"941211231","beds":87.0,"type":"GENERAL","notes":"","agreement":"SI","lat":"","lon":""},
{"codCNH":"260048","name":"HOSPITAL GENERAL DE LA RIOJA","idRegion":"ES230","phone":"941298000","fax":"941297386","beds":0.0,"type":"GENERAL","notes":"","agreement":"NO","lat":"","lon":""},
{"codCNH":"260027","name":"HOSPITAL SAN PEDRO","idRegion":"ES230","phone":"941298000","fax":"941297550","beds":0.0,"type":"GENERAL","notes":"","agreement":"NO","lat":"42.451027200000006","lon":"-2.4264893828735716"},
{"codCNH":"270076","name":"SANATORIO NOSA SEÑORA DOS OLLOS GRANDES","idRegion":"ES112","phone":"982284040","fax":"982252047","beds":69.0,"type":"GENERAL","notes":"","agreement":"SI","lat":"43.011746200000005","lon":"-7.5620632"},
{"codCNH":"270122","name":"HOSPITAL UNIVERSITARIO LUCUS AUGUSTI","idRegion":"ES112","phone":"982296000","fax":"","beds":0.0,"type":"GENERAL","notes":"","agreement":"NO","lat":"43.02069585","lon":"-7.533839337257778"},
{"codCNH":"270018","name":"COMPLEXO HOSPITALARIO UNIVERSITARIO DE LUGO","idRegion":"ES112","phone":"982296000","fax":"982295611","beds":848.0,"type":"GENERAL","notes":"","agreement":"NO","lat":"","lon":""},
{"codCNH":"270039","name":"HOSPITAL DE CALDE (PSIQUIATRICO)","idRegion":"ES112","phone":"982296000","fax":"982295544","beds":0.0,"type":"GENERAL","notes":"","agreement":"NO","lat":"","lon":""},
{"codCNH":"270057","name":"HOSPITAL POLUSA","idRegion":"ES112","phone":"982222854","fax":"982267147","beds":97.0,"type":"GENERAL","notes":"","agreement":"SI","lat":"","lon":""},
{"codCNH":"280360","name":"HOSPITAL BEATA MARÍA ANA. HH. HOSPITALARIAS SGDO. C. DE JESÚS","idRegion":"ES300","phone":"914097423","fax":"915732026","beds":160.0,"type":"MÉDICO-QUIRÚRGICO","notes":"","agreement":"SI","lat":"","lon":""},
{"codCNH":"280357","name":"HOSPITAL QUIRÓNSALUD SAN JOSÉ","idRegion":"ES300","phone":"910687000","fax":"915103833","beds":84.0,"type":"QUIRÚRGICO","notes":"","agreement":"SI","lat":"","lon":""},
{"codCNH":"280344","name":"HOSPITAL DE LA V.O.T. DE SAN FRANCISCO DE ASÍS","idRegion":"ES300","phone":"913657600","fax":"913650860","beds":72.0,"type":"GENERAL","notes":"","agreement":"SI","lat":"","lon":""},
{"codCNH":"280339","name":"HOSPITAL SAN RAFAEL","idRegion":"ES300","phone":"915649943","fax":"915635005","beds":188.0,"type":"GENERAL","notes":"","agreement":"SI","lat":"","lon":""},
{"codCNH":"280323","name":"SANATORIO NUESTRA SEÑORA DEL ROSARIO","idRegion":"ES300","phone":"914359100","fax":"915761800","beds":176.0,"type":"GENERAL","notes":"","agreement":"NO","lat":"40.43221065","lon":"-3.6803222679672296"},
{"codCNH":"280262","name":"HOSPITAL DR. R. LAFORA","idRegion":"ES300","phone":"915867500","fax":"915867391","beds":334.0,"type":"PSIQUIÁTRICO","notes":"","agreement":"NO","lat":"","lon":""},
{"codCNH":"280246","name":"HOSPITAL GENERAL UNIVERSITARIO GREGORIO MARAÑÓN","idRegion":"ES300","phone":"915868000","fax":"915868018","beds":0.0,"type":"GENERAL","notes":"","agreement":"NO","lat":"40.41968845","lon":"-3.671126229017084"},
{"codCNH":"280225","name":"COMPLEJO HOSPITALARIO GREGORIO MARAÑÓN","idRegion":"ES300","phone":"915868000","fax":"915868018","beds":1349.0,"type":"GENERAL","notes":"","agreement":"NO","lat":"","lon":""},
{"codCNH":"280210","name":"HOSPITAL CANTOBLANCO","idRegion":"ES300","phone":"917277000","fax":"913584699","beds":0.0,"type":"GENERAL","notes":"","agreement":"NO","lat":"42.836215","lon":"-2.9681851000000004"},
{"codCNH":"280164","name":"HOSPITAL CARLOS III","idRegion":"ES300","phone":"917277000","fax":"913584699","beds":0.0,"type":"GENERAL","notes":"","agreement":"NO","lat":"40.47515315","lon":"-3.6962334469152314"},
{"codCNH":"280148","name":"HOSPITAL CENTRAL DE LA CRUZ ROJA SAN JOSÉ Y SANTA ADELA","idRegion":"ES300","phone":"914538300","fax":"915330515","beds":154.0,"type":"GENERAL","notes":"","agreement":"NO","lat":"40.4480033","lon":"-3.707571441321388"},
{"codCNH":"280133","name":"HOSPITAL INFANTIL UNIVERSITARIO NIÑO JESUS","idRegion":"ES300","phone":"915035900","fax":"915733546","beds":170.0,"type":"INFANTIL","notes":"","agreement":"NO","lat":"","lon":""},
{"codCNH":"280127","name":"HOSPITAL UNIVERSITARIO DE LA PRINCESA","idRegion":"ES300","phone":"915202200","fax":"914021169","beds":524.0,"type":"GENERAL","notes":"","agreement":"NO","lat":"40.4340157","lon":"-3.6757531094540887"},
{"codCNH":"280112","name":"HOSPITAL UNIVERSITARIO SANTA CRISTINA","idRegion":"ES300","phone":"915574300","fax":"915574400","beds":156.0,"type":"GENERAL","notes":"","agreement":"NO","lat":"40.42175155","lon":"-3.6710253463904463"},
{"codCNH":"280259","name":"INSTITUTO PROVINCIAL DE REHABILITACIÓN","idRegion":"ES300","phone":"915868967","fax":"915868996","beds":0.0,"type":"GERIATRÍA Y/O LARGA ESTANCIA","notes":"","agreement":"NO","lat":"40.4333333","lon":"-3.6724948110079776"},
{"codCNH":"280091","name":"HOSPITAL VIRGEN DE LA TORRE","idRegion":"ES300","phone":"911918883","fax":"911919895","beds":0.0,"type":"OTROS MONOGRÁFICOS","notes":"","agreement":"NO","lat":"40.38102185","lon":"-3.6192746080343374"},
{"codCNH":"280072","name":"HOSPITAL CLÍNICO SAN CARLOS","idRegion":"ES300","phone":"913303000","fax":"913303257","beds":861.0,"type":"GENERAL","notes":"","agreement":"NO","lat":"","lon":""},
{"codCNH":"280035","name":"HOSPITAL UNIVERSITARIO 12 DE OCTUBRE","idRegion":"ES300","phone":"913908373","fax":"913908582","beds":1196.0,"type":"GENERAL","notes":"","agreement":"NO","lat":"40.3766795","lon":"-3.698863326841338"},
{"codCNH":"280029","name":"HOSPITAL RAMÓN Y CAJAL","idRegion":"ES300","phone":"913368000","fax":"913580614","beds":901.0,"type":"GENERAL","notes":"","agreement":"NO","lat":"40.48778720000001","lon":"-3.6936785000000003"},
{"codCNH":"280014","name":"HOSPITAL UNIVERSITARIO LA PAZ","idRegion":"ES300","phone":"917277000","fax":"913584699","beds":0.0,"type":"GENERAL","notes":"","agreement":"NO","lat":"40.48144225","lon":"-3.6872531870474874"},
{"codCNH":"281405","name":"COMPLEJO HOSPITALARIO UNIVERSITARIO INFANTA LEONOR","idRegion":"ES300","phone":"911918000","fax":"911919077","beds":361.0,"type":"GENERAL","notes":"","agreement":"NO","lat":"","lon":""},
{"codCNH":"281393","name":"CLÍNICA UNIVERSIDAD DE NAVARRA","idRegion":"ES300","phone":"913138400","fax":"","beds":72.0,"type":"GENERAL","notes":"","agreement":"NO","lat":"42.8058167","lon":"-1.6642959885309303"},
{"codCNH":"281270","name":"HOSPITAL UNIVERSITARIO INFANTA LEONOR","idRegion":"ES300","phone":"911918000","fax":"911919077","beds":0.0,"type":"GENERAL","notes":"","agreement":"NO","lat":"40.3860763","lon":"-3.617665655935757"},
{"codCNH":"281247","name":"VITAS NISA PARDO DE ARAVACA.","idRegion":"ES300","phone":"915129000","fax":"913079510","beds":98.0,"type":"GENERAL","notes":"","agreement":"SI","lat":"","lon":""},
{"codCNH":"281225","name":"HOSPITAL UNIVERSITARIO MADRID SANCHINARRO","idRegion":"ES300","phone":"917567800","fax":"917500133","beds":198.0,"type":"GENERAL","notes":"","agreement":"SI","lat":"","lon":""},
{"codCNH":"281214","name":"HOSPITAL CENTRO DE CUIDADOS LAGUNA","idRegion":"ES300","phone":"915099137","fax":"914013649","beds":47.0,"type":"OTROS MONOGRÁFICOS","notes":"","agreement":"SI","lat":"","lon":""},
{"codCNH":"281179","name":"HOSPITAL LA MORALEJA","idRegion":"ES300","phone":"917679100","fax":"917679344","beds":126.0,"type":"GENERAL","notes":"","agreement":"NO","lat":"40.068462700000005","lon":"-6.6604617"},
{"codCNH":"281168","name":"COMPLEJO UNIVERSITARIO LA PAZ","idRegion":"ES300","phone":"917277000","fax":"913584699","beds":1268.0,"type":"GENERAL","notes":"","agreement":"NO","lat":"","lon":""},
{"codCNH":"281113","name":"CENTRO ONCOLÓGICO MD ANDERSON INTERNATIONAL ESPAÑA","idRegion":"ES300","phone":"917878600","fax":"917680687","beds":99.0,"type":"ONCOLÓGICO","notes":"","agreement":"SI","lat":"","lon":""},
{"codCNH":"281087","name":"CLINICA CEMTRO","idRegion":"ES300","phone":"917355757","fax":"917355758","beds":94.0,"type":"MÉDICO-QUIRÚRGICO","notes":"","agreement":"NO","lat":"40.49403635","lon":"-3.71692779400324"},
{"codCNH":"281049","name":"HOSPITAL UNIVERSITARIO MONCLOA","idRegion":"ES300","phone":"915957392","fax":"915957077","beds":235.0,"type":"GENERAL","notes":"","agreement":"SI","lat":"","lon":""},
{"codCNH":"281034","name":"CLÍNICA ISADORA","idRegion":"ES300","phone":"913111000","fax":"913111659","beds":19.0,"type":"MÉDICO-QUIRÚRGICO","notes":"","agreement":"SI","lat":"","lon":""},
{"codCNH":"280954","name":"HOSPITAL DE MADRID","idRegion":"ES300","phone":"914476600","fax":"915941598","beds":99.0,"type":"QUIRÚRGICO","notes":"","agreement":"SI","lat":"","lon":""},
{"codCNH":"281416","name":"CLÍNICA SAN VICENTE","idRegion":"ES300","phone":"916318212","fax":"917348731","beds":45.0,"type":"REHABILITACIÓN PSICOFÍSICA","notes":"","agreement":"SI","lat":"","lon":""},
{"codCNH":"280724","name":"HOSPITAL CENTRAL DE LA DEFENSA GOMEZ ULLA","idRegion":"ES300","phone":"914222000","fax":"914228201","beds":475.0,"type":"GENERAL","notes":"","agreement":"SI","lat":"40.3901383","lon":"-3.74754307964808"},
{"codCNH":"280679","name":"SANATORIO ESQUERDO, S.A.","idRegion":"ES300","phone":"917061100","fax":"917063521","beds":115.0,"type":"PSIQUIÁTRICO","notes":"","agreement":"NO","lat":"","lon":""},
{"codCNH":"280650","name":"INSTITUTO DE INVESTIGACIONES NEUROPSIQUIÁTRICAS DR. LÓPEZ IBOR","idRegion":"ES300","phone":"913162740","fax":"913162844","beds":67.0,"type":"PSIQUIÁTRICO","notes":"","agreement":"NO","lat":"","lon":""},
{"codCNH":"280647","name":"SANATORIO NEUROPSIQUIÁTRICO DOCTOR LEÓN","idRegion":"ES300","phone":"914332948","fax":"914334938","beds":96.0,"type":"PSIQUIÁTRICO","notes":"","agreement":"NO","lat":"","lon":""},
{"codCNH":"280626","name":"HOSPITAL UNIVERSITARIO HM NUEVO BELEN","idRegion":"ES300","phone":"917444100","fax":"914153305","beds":60.0,"type":"MATERNAL","notes":"","agreement":"NO","lat":"","lon":""},
{"codCNH":"280604","name":"HOSPITAL UNIVERSITARIO LA ZARZUELA","idRegion":"ES300","phone":"915858016","fax":"913572892","beds":116.0,"type":"GENERAL","notes":"","agreement":"NO","lat":"","lon":""},
{"codCNH":"280587","name":"CLÍNICA LA MILAGROSA","idRegion":"ES300","phone":"914472100","fax":"914473449","beds":171.0,"type":"QUIRÚRGICO","notes":"","agreement":"SI","lat":"40.43699820000001","lon":"-3.695939479054601"},
{"codCNH":"280565","name":"HOSPITAL RUBER INTERNACIONAL","idRegion":"ES300","phone":"913875000","fax":"913875259","beds":143.0,"type":"GENERAL","notes":"","agreement":"SI","lat":"40.489135299999994","lon":"-3.7140078"},
{"codCNH":"280552","name":"HOSPITAL RUBER JUAN BRAVO 49","idRegion":"ES300","phone":"910687999","fax":"914024617","beds":163.0,"type":"GENERAL","notes":"","agreement":"SI","lat":"","lon":""},
{"codCNH":"280549","name":"FUENSANTA S.L. (CLÍNICA FUENSANTA)","idRegion":"ES300","phone":"914100200","fax":"914071512","beds":30.0,"type":"QUIRÚRGICO","notes":"","agreement":"SI","lat":"","lon":""},
{"codCNH":"280534","name":"CLÍNICA LA LUZ, S.L.","idRegion":"ES300","phone":"914530200","fax":"914530425","beds":180.0,"type":"MÉDICO-QUIRÚRGICO","notes":"","agreement":"SI","lat":"40.444139899999996","lon":"-3.7137332682837347"},
{"codCNH":"280528","name":"HOSPITAL VIRGEN DE LA PALOMA, S.A.","idRegion":"ES300","phone":"915348207","fax":"915532268","beds":92.0,"type":"QUIRÚRGICO","notes":"","agreement":"NO","lat":"","lon":""},
{"codCNH":"280474","name":"HOSPITAL VITHAS NUESTRA SEÑORA DE AMÉRICA","idRegion":"ES300","phone":"902500112","fax":"914130974","beds":100.0,"type":"GENERAL","notes":"","agreement":"SI","lat":"40.4496238","lon":"-3.6522874022312006"},
{"codCNH":"280468","name":"HOSPITAL RUBER JUAN BRAVO 39","idRegion":"ES300","phone":"910687777","fax":"913098223","beds":70.0,"type":"GENERAL","notes":"","agreement":"SI","lat":"","lon":""},
{"codCNH":"280455","name":"HESTIA MADRID (CLÍNICA SEAR, S.A.)","idRegion":"ES300","phone":"917340500","fax":"917348734","beds":250.0,"type":"GERIATRÍA Y/O LARGA ESTANCIA","notes":"","agreement":"SI","lat":"","lon":""},
{"codCNH":"280442","name":"HOSPITAL VIRGEN DEL MAR","idRegion":"ES300","phone":"913539500","fax":"913451013","beds":76.0,"type":"GENERAL","notes":"","agreement":"NO","lat":"40.4593232","lon":"-3.6786951952687907"},
{"codCNH":"280421","name":"HOSPITAL UNIVERSITARIO FUNDACIÓN JIMÉNEZ DÍAZ","idRegion":"ES300","phone":"915504800","fax":"915443625","beds":659.0,"type":"GENERAL","notes":"","agreement":"SI","lat":"","lon":""},
{"codCNH":"280416","name":"FUNDACIÓN INSTITUTO SAN JOSÉ","idRegion":"ES300","phone":"915080140","fax":"915083760","beds":259.0,"type":"GERIATRÍA Y/O LARGA ESTANCIA","notes":"","agreement":"SI","lat":"40.36313615","lon":"-3.7733963712887384"},
{"codCNH":"280409","name":"CLÍNICA NUESTRA SRA. DE LA PAZ","idRegion":"ES300","phone":"914156000","fax":"915191509","beds":99.0,"type":"PSIQUIÁTRICO","notes":"","agreement":"SI","lat":"36.4668448","lon":"-5.927745400000001"},
{"codCNH":"280395","name":"CLÍNICA SAN MIGUEL","idRegion":"ES300","phone":"914135011","fax":"914135638","beds":94.0,"type":"PSIQUIÁTRICO","notes":"","agreement":"SI","lat":"42.8191463","lon":"-1.620756392984834"},
{"codCNH":"280382","name":"HOSPITAL SAN FRANCISCO DE ASÍS","idRegion":"ES300","phone":"915617100","fax":"915643971","beds":168.0,"type":"GENERAL","notes":"","agreement":"SI","lat":"","lon":""},
{"codCNH":"280376","name":"CLÍNICA SANTA ELENA","idRegion":"ES300","phone":"914539400","fax":"914539401","beds":76.0,"type":"GENERAL","notes":"","agreement":"SI","lat":"40.445681799999996","lon":"-3.716825558930167"},
{"codCNH":"290115","name":"CLÍNICA DE LA ENCARNACIÓN","idRegion":"ES617","phone":"952287766","fax":"952272473","beds":105.0,"type":"GENERAL","notes":"","agreement":"SI","lat":"36.7198751","lon":"-4.454131674311508"},
{"codCNH":"290416","name":"COMUNIDAD TERAPÉUTICA SAN ANTONIO","idRegion":"ES617","phone":"952201464","fax":"952201463","beds":35.0,"type":"PSIQUIÁTRICO","notes":"","agreement":"NO","lat":"","lon":""},
{"codCNH":"290017","name":"HOSPITAL GENERAL DEL H.U.R. DE MÁLAGA","idRegion":"ES617","phone":"951030100","fax":"951030157","beds":0.0,"type":"GENERAL","notes":"","agreement":"NO","lat":"","lon":""},
{"codCNH":"290022","name":"HOSPITAL VIRGEN DE LA VICTORIA","idRegion":"ES617","phone":"951032000","fax":"951032188","beds":0.0,"type":"GENERAL","notes":"","agreement":"NO","lat":"","lon":""},
{"codCNH":"290038","name":"HOSPITAL CIVIL","idRegion":"ES617","phone":"951030300","fax":"951030302","beds":0.0,"type":"GENERAL","notes":"","agreement":"NO","lat":"36.72789245","lon":"-4.432454070990566"},
{"codCNH":"290069","name":"CENTRO ASISTENCIAL SAN JUAN DE DIOS","idRegion":"ES617","phone":"952250550","fax":"952255039","beds":351.0,"type":"PSIQUIÁTRICO","notes":"","agreement":"NO","lat":"41.9994166","lon":"-4.554387660668667"},
{"codCNH":"290075","name":"CENTRO ASISTENCIAL HNAS. HOSP. DEL SAGRADO CORAZÓN DE JESÚS","idRegion":"ES617","phone":"952256150","fax":"952251823","beds":321.0,"type":"PSIQUIÁTRICO","notes":"","agreement":"NO","lat":"","lon":""},
{"codCNH":"290081","name":"HOSPITAL VITHAS PARQUE SAN ANTONIO","idRegion":"ES617","phone":"952211050","fax":"952211059","beds":100.0,"type":"GENERAL","notes":"","agreement":"NO","lat":"36.72278405","lon":"-4.397277908076108"},
{"codCNH":"290094","name":"HOSPITAL EL ÁNGEL","idRegion":"ES617","phone":"952045000","fax":"952348144","beds":138.0,"type":"GENERAL","notes":"","agreement":"NO","lat":"","lon":""},
{"codCNH":"290108","name":"HOSPITAL DOCTOR GÁLVEZ","idRegion":"ES617","phone":"952224295","fax":"952211885","beds":62.0,"type":"GENERAL","notes":"","agreement":"NO","lat":"36.720914799999996","lon":"-4.419408435502019"},
{"codCNH":"290136","name":"HOSPITAL PSIQUIÁTRICO SAN FRANCISCO DE ASÍS","idRegion":"ES617","phone":"952201464","fax":"952201463","beds":150.0,"type":"PSIQUIÁTRICO","notes":"","agreement":"NO","lat":"","lon":""},
{"codCNH":"290141","name":"CLÍNICA NUESTRA SRA. DEL PILAR","idRegion":"ES617","phone":"952217606","fax":"952217605","beds":21.0,"type":"GENERAL","notes":"","agreement":"SI","lat":"","lon":""},
{"codCNH":"290449","name":"HOSPITAL QUIRONSALUD MÁLAGA","idRegion":"ES617","phone":"952176016","fax":"952176120","beds":132.0,"type":"GENERAL","notes":"","agreement":"NO","lat":"","lon":""},
{"codCNH":"290290","name":"HOSPITAL  F.A.C. DOCTOR PASCUAL","idRegion":"ES617","phone":"951019100","fax":"951019281","beds":201.0,"type":"GENERAL","notes":"","agreement":"SI","lat":"36.8628149","lon":"-5.6512128"},
{"codCNH":"290265","name":"HOSPITAL MATERNO-INFANTIL DEL H.U.R. DE MÁLAGA","idRegion":"ES617","phone":"951030200","fax":"951030245","beds":0.0,"type":"MATERNO-INFANTIL","notes":"","agreement":"NO","lat":"","lon":""},
{"codCNH":"290252","name":"HOSPITAL UNIVERSITARIO VIRGEN DE LA VICTORIA","idRegion":"ES617","phone":"951032000","fax":"951032188","beds":657.0,"type":"GENERAL","notes":"","agreement":"NO","lat":"","lon":""},
{"codCNH":"290234","name":"HOSPITAL UNIVERSITARIO REGIONAL DE MÁLAGA","idRegion":"ES617","phone":"951030100","fax":"951030157","beds":1049.0,"type":"GENERAL","notes":"","agreement":"NO","lat":"","lon":""},
{"codCNH":"520018","name":"HOSPITAL COMARCAL","idRegion":"ES640","phone":"952698001","fax":"952698032","beds":168.0,"type":"GENERAL","notes":"","agreement":"NO","lat":"35.2863723","lon":"-2.9473842955771024"},
{"codCNH":"300011","name":"HOSPITAL CLÍNICO UNIVERSITARIO VIRGEN DE LA ARRIXACA","idRegion":"ES620","phone":"968369500","fax":"968369776","beds":920.0,"type":"GENERAL","notes":"","agreement":"NO","lat":"37.93215975","lon":"-1.1625427931490806"},
{"codCNH":"300026","name":"HOSPITAL GENERAL UNIVERSITARIO REINA SOFÍA","idRegion":"ES620","phone":"968359000","fax":"968359819","beds":339.0,"type":"GENERAL","notes":"","agreement":"NO","lat":"37.98288125000001","lon":"-1.1210399437685714"},
{"codCNH":"300050","name":"HOSPITAL QUIRÓNSALUD MURCIA","idRegion":"ES620","phone":"968365000","fax":"968250977","beds":131.0,"type":"GENERAL","notes":"","agreement":"SI","lat":"","lon":""},
{"codCNH":"300079","name":"HOSPITAL LA VEGA","idRegion":"ES620","phone":"968278100","fax":"968233116","beds":123.0,"type":"GENERAL","notes":"","agreement":"SI","lat":"","lon":""},
{"codCNH":"300085","name":"HOSPITAL MESA DEL CASTILLO","idRegion":"ES620","phone":"968246116","fax":"968234036","beds":76.0,"type":"MÉDICO-QUIRÚRGICO","notes":"","agreement":"SI","lat":"37.9694704","lon":"-1.1280926534515434"},
{"codCNH":"300098","name":"SANATORIO DOCTOR MUÑOZ S.L.","idRegion":"ES620","phone":"968885550","fax":"868042968","beds":50.0,"type":"PSIQUIÁTRICO","notes":"","agreement":"NO","lat":"","lon":""},
{"codCNH":"300269","name":"HOSPITAL GENERAL UNIVERSITARIO J.M. MORALES MESEGUER","idRegion":"ES620","phone":"968244200","fax":"968243895","beds":394.0,"type":"GENERAL","notes":"","agreement":"NO","lat":"","lon":""},
{"codCNH":"300275","name":"HOSPITAL IBERMUTUAMUR-PATOLOGÍA LABORAL","idRegion":"ES620","phone":"968394000","fax":"968394014","beds":26.0,"type":"TRAUMATOLOGÍA Y/O REHABILITACIÓN","notes":"","agreement":"NO","lat":"","lon":""},
{"codCNH":"300317","name":"CLÍNICA SAN FELIPE DEL MEDITERRÁNEO","idRegion":"ES620","phone":"968889096","fax":"968889097","beds":62.0,"type":"PSIQUIÁTRICO","notes":"","agreement":"SI","lat":"","lon":""},
{"codCNH":"300032","name":"HOSPITAL PSIQUIÁTRICO ROMAN ALBERCA","idRegion":"ES620","phone":"968365800","fax":"968365801","beds":96.0,"type":"PSIQUIÁTRICO","notes":"","agreement":"NO","lat":"37.9426544","lon":"-1.1672759573070917"},
{"codCNH":"320163","name":"CLINICA SANTA TERESA","idRegion":"ES113","phone":"988371710","fax":"988372357","beds":49.0,"type":"GENERAL","notes":"","agreement":"SI","lat":"40.65949465","lon":"-4.686122414184396"},
{"codCNH":"320013","name":"COMPLEXO HOSPITALARIO UNIVERSITARIO DE OURENSE","idRegion":"ES113","phone":"988385500","fax":"988385551","beds":869.0,"type":"GENERAL","notes":"","agreement":"NO","lat":"42.3258516","lon":"-7.86044497024887"},
{"codCNH":"320028","name":"HOSPITAL UNIVERSITARIO CRISTAL","idRegion":"ES113","phone":"988385500","fax":"988385551","beds":0.0,"type":"GENERAL","notes":"","agreement":"NO","lat":"","lon":""},
{"codCNH":"320052","name":"HOSPITAL SANTA MARIA NAI","idRegion":"ES113","phone":"988385500","fax":"988385551","beds":0.0,"type":"GENERAL","notes":"","agreement":"NO","lat":"42.32655490000001","lon":"-7.859673728712561"},
{"codCNH":"320087","name":"CENTRO MEDICO EL CARMEN","idRegion":"ES113","phone":"988223400","fax":"988241300","beds":43.0,"type":"GENERAL","notes":"","agreement":"SI","lat":"36.7809487","lon":"-4.1059629"},
{"codCNH":"330061","name":"CENTRO MÉDICO DE ASTURIAS","idRegion":"ES120","phone":"985250300","fax":"985238433","beds":105.0,"type":"GENERAL","notes":"","agreement":"SI","lat":"43.34193625","lon":"-5.874346443123287"},
{"codCNH":"330077","name":"CLÍNICA ASTURIAS","idRegion":"ES120","phone":"985286000","fax":"985289954","beds":46.0,"type":"GENERAL","notes":"","agreement":"SI","lat":"43.3678234","lon":"-5.8562017490518485"},
{"codCNH":"330096","name":"CLÍNICA SAN RAFAEL","idRegion":"ES120","phone":"985282526","fax":"985290284","beds":36.0,"type":"PSIQUIÁTRICO","notes":"","agreement":"NO","lat":"36.53315585","lon":"-6.302035775812517"},
{"codCNH":"330292","name":"HOSPITAL UNIVERSITARIO CENTRAL DE ASTURIAS","idRegion":"ES120","phone":"985108000","fax":"985108703","beds":991.0,"type":"GENERAL","notes":"","agreement":"NO","lat":"43.37598885","lon":"-5.8292808936581695"},
{"codCNH":"330343","name":"CLÍNICA CIRUGÍA PLÁSTICA Y ESTÉTICA FERNÁNDEZ Y FERNÁNDEZ COSSÍO","idRegion":"ES120","phone":"985220244","fax":"","beds":3.0,"type":"QUIRÚRGICO","notes":"","agreement":"NO","lat":"","lon":""},
{"codCNH":"330045","name":"HOSPITAL MONTE NARANCO","idRegion":"ES120","phone":"985106900","fax":"985106911","beds":194.0,"type":"GENERAL","notes":"","agreement":"NO","lat":"43.370156099999996","lon":"-5.873005763217705"},
{"codCNH":"330376","name":"INSTITUTO OFTALMOLÓGICO FERNÁNDEZ -VEGA","idRegion":"ES120","phone":"985241512","fax":"985231254","beds":13.0,"type":"OFTÁLMICO U ORL","notes":"","agreement":"NO","lat":"","lon":""},
{"codCNH":"340063","name":"COMPLEJO ASISTENCIAL UNIVERSITARIO DE PALENCIA","idRegion":"ES414","phone":"979167000","fax":"979167014","beds":495.0,"type":"GENERAL","notes":"","agreement":"NO","lat":"","lon":""},
{"codCNH":"340053","name":"HOSPITAL RECOLETAS DE PALENCIA","idRegion":"ES414","phone":"979747700","fax":"979703329","beds":44.0,"type":"GENERAL","notes":"","agreement":"SI","lat":"","lon":""},
{"codCNH":"340040","name":"ÁREA PSIQUIÁTRICA DEL CENTRO ASISTENCIAL SAN JUAN DE DIOS","idRegion":"ES414","phone":"979742300","fax":"979742890","beds":97.0,"type":"PSIQUIÁTRICO","notes":"","agreement":"SI","lat":"","lon":""},
{"codCNH":"340035","name":"HOSPITAL PSIQUIATRICO SAN LUIS","idRegion":"ES414","phone":"979165324","fax":"979165443","beds":206.0,"type":"PSIQUIÁTRICO","notes":"","agreement":"NO","lat":"41.99361155","lon":"-4.506501179765371"},
{"codCNH":"340029","name":"HOSPITAL SAN TELMO","idRegion":"ES414","phone":"979167000","fax":"979167014","beds":0.0,"type":"GENERAL","notes":"","agreement":"NO","lat":"41.9972544","lon":"-4.518894338985512"},
{"codCNH":"340014","name":"HOSPITAL RIO CARRIÓN","idRegion":"ES414","phone":"979167000","fax":"979167014","beds":0.0,"type":"GENERAL","notes":"","agreement":"NO","lat":"42.000819","lon":"-4.539802900320144"},
{"codCNH":"70048","name":"HOSPITAL GENERAL DE MALLORCA","idRegion":"ES532","phone":"871205000","fax":"971212383","beds":100.0,"type":"GERIATRÍA Y/O LARGA ESTANCIA","notes":"","agreement":"SI","lat":"39.57414235","lon":"2.646427542304876"},
{"codCNH":"70434","name":"CLÍNICA LUZ DE PALMA","idRegion":"ES532","phone":"971599167","fax":"","beds":38.0,"type":"GENERAL","notes":"","agreement":"NO","lat":"","lon":""},
{"codCNH":"70051","name":"HOSPITAL PSIQUIÀTRIC","idRegion":"ES532","phone":"871205000","fax":"971212383","beds":168.0,"type":"PSIQUIÁTRICO","notes":"","agreement":"SI","lat":"39.58452835","lon":"2.643167766932394"},
{"codCNH":"70064","name":"CLÍNICA MUTUA BALEAR","idRegion":"ES532","phone":"971213400","fax":"971715858","beds":40.0,"type":"TRAUMATOLOGÍA Y/O REHABILITACIÓN","notes":"","agreement":"SI","lat":"39.6075815","lon":"2.66238905"},
{"codCNH":"70070","name":"HOSPITAL DE LA CRUZ ROJA ESPAÑOLA","idRegion":"ES532","phone":"971751445","fax":"971761101","beds":73.0,"type":"MÉDICO-QUIRÚRGICO","notes":"","agreement":"SI","lat":"38.36110825","lon":"-0.4918308733885922"},
{"codCNH":"70086","name":"HOSPITAL SANT JOAN DE DEU","idRegion":"ES532","phone":"971265854","fax":"971269308","beds":200.0,"type":"MÉDICO-QUIRÚRGICO","notes":"","agreement":"SI","lat":"41.3843547","lon":"2.1019053154910337"},
{"codCNH":"70099","name":"CLÍNICA ROTGER","idRegion":"ES532","phone":"971448500","fax":"971722704","beds":186.0,"type":"GENERAL","notes":"","agreement":"NO","lat":"39.5754825","lon":"2.646900992186171"},
{"codCNH":"70110","name":"CLINICA JUANEDA","idRegion":"ES532","phone":"971221257","fax":"971221297","beds":196.0,"type":"GENERAL","notes":"","agreement":"NO","lat":"39.577371899999996","lon":"2.6271314034578044"},
{"codCNH":"70131","name":"POLICLÍNICA MIRAMAR","idRegion":"ES532","phone":"971767000","fax":"971767379","beds":206.0,"type":"GENERAL","notes":"","agreement":"SI","lat":"39.583495299999996","lon":"2.630276"},
{"codCNH":"70399","name":"HOSPITAL UNIVERSITARI SON ESPASES","idRegion":"ES532","phone":"871205000","fax":"871205500","beds":839.0,"type":"GENERAL","notes":"","agreement":"NO","lat":"39.60701435","lon":"2.6447544813981168"},
{"codCNH":"70333","name":"HOSPITAL SON LLATZER","idRegion":"ES532","phone":"871202000","fax":"871202027","beds":419.0,"type":"GENERAL","notes":"","agreement":"NO","lat":"39.5698335","lon":"2.6980668"},
{"codCNH":"70344","name":"HOSPITAL QUIRÓNSALUD PALMAPLANAS","idRegion":"ES532","phone":"971918000","fax":"971918012","beds":169.0,"type":"GENERAL","notes":"","agreement":"SI","lat":"39.59868325","lon":"2.6438373301487146"},
{"codCNH":"350081","name":"SANATORIO DERMATOLÓGICO REGIONAL","idRegion":"ES705","phone":"928350354","fax":"928350100","beds":54.0,"type":"GERIATRÍA Y/O LARGA ESTANCIA","notes":"","agreement":"SI","lat":"","lon":""},
{"codCNH":"350332","name":"COMPLEJO HOSPITALARIO UNIVERSITARIO DE GRAN CANARIA DR. NEGRÍN","idRegion":"ES705","phone":"928450001","fax":"928449085","beds":828.0,"type":"GENERAL","notes":"","agreement":"NO","lat":"","lon":""},
{"codCNH":"350069","name":"UNIDADES CLÍNICAS Y DE REHABILITACIÓN (UCYR)","idRegion":"ES705","phone":"928303834","fax":"","beds":0.0,"type":"PSIQUIÁTRICO","notes":"","agreement":"NO","lat":"","lon":""},
{"codCNH":"350311","name":"HOSPITAL UNIVERSITARIO  DE GRAN CANARIA DR. NEGRÍN","idRegion":"ES705","phone":"928450001","fax":"928449085","beds":0.0,"type":"GENERAL","notes":"","agreement":"NO","lat":"28.12092","lon":"-15.444681301510293"},
{"codCNH":"350290","name":"COMPLEJO HOSPITALARIO UNIVERSITARIO INSULAR-MATERNO INFANTIL","idRegion":"ES705","phone":"928444000","fax":"928444732","beds":916.0,"type":"GENERAL","notes":"","agreement":"NO","lat":"","lon":""},
{"codCNH":"350056","name":"HOSPITAL UNIVERSITARIO INSULAR DE GRAN CANARIA","idRegion":"ES705","phone":"928444000","fax":"928444732","beds":0.0,"type":"GENERAL","notes":"","agreement":"NO","lat":"","lon":""},
{"codCNH":"350043","name":"HOSPITAL UNIVERSITARIO MATERNO-INFANTIL DE CANARIAS","idRegion":"ES705","phone":"928444400","fax":"928444732","beds":0.0,"type":"MATERNO-INFANTIL","notes":"","agreement":"NO","lat":"","lon":""},
{"codCNH":"350206","name":"HOSPITAL NUESTRA SEÑORA DEL PERPETUO SOCORRO","idRegion":"ES705","phone":"928499900","fax":"928266627","beds":187.0,"type":"GENERAL","notes":"","agreement":"SI","lat":"","lon":""},
{"codCNH":"350192","name":"CLÍNICA BANDAMA","idRegion":"ES705","phone":"928350050","fax":"928353264","beds":64.0,"type":"PSIQUIÁTRICO","notes":"","agreement":"NO","lat":"","lon":""},
{"codCNH":"350173","name":"HOSPITAL SAN ROQUE LAS PALMAS DE GRAN CANARIA","idRegion":"ES705","phone":"928012630","fax":"928316048","beds":162.0,"type":"GENERAL","notes":"","agreement":"SI","lat":"28.0977378","lon":"-15.426755400000001"},
{"codCNH":"350167","name":"INSTITUTO POLICLÍNICO CAJAL, S.L.","idRegion":"ES705","phone":"928369166","fax":"928363475","beds":136.0,"type":"GENERAL","notes":"","agreement":"SI","lat":"","lon":""},
{"codCNH":"350154","name":"HOSPITAL POLICLÍNICO LA PALOMA, S.A.","idRegion":"ES705","phone":"928234466","fax":"928242840","beds":108.0,"type":"GENERAL","notes":"","agreement":"SI","lat":"","lon":""},
{"codCNH":"350120","name":"VITHAS HOSPITAL SANTA CATALINA","idRegion":"ES705","phone":"928297151","fax":"928233485","beds":152.0,"type":"GENERAL","notes":"","agreement":"SI","lat":"","lon":""},
{"codCNH":"350115","name":"FUNDACIÓN BENÉFICA CANARIA CASA ASILO SAN JOSÉ","idRegion":"ES705","phone":"928263708","fax":"928264393","beds":66.0,"type":"GENERAL","notes":"","agreement":"SI","lat":"","lon":""},
{"codCNH":"310039","name":"CENTRO SAN FRANCISCO JAVIER","idRegion":"ES220","phone":"848422730","fax":"848428301","beds":28.0,"type":"PSIQUIÁTRICO","notes":"","agreement":"NO","lat":"","lon":""},
{"codCNH":"310044","name":"HOSPITAL SAN JUAN DE DIOS","idRegion":"ES220","phone":"948231800","fax":"948012160","beds":190.0,"type":"GENERAL","notes":"","agreement":"SI","lat":"","lon":""},
{"codCNH":"310057","name":"CLINICA PSIQUIATRICA PADRE MENNI","idRegion":"ES220","phone":"948140611","fax":"","beds":226.0,"type":"PSIQUIÁTRICO","notes":"","agreement":"SI","lat":"42.82515895","lon":"-1.6546941690703432"},
{"codCNH":"310060","name":"CLINICA UNIVERSIDAD DE NAVARRA","idRegion":"ES220","phone":"948255400","fax":"948296500","beds":241.0,"type":"GENERAL","notes":"","agreement":"SI","lat":"42.8058167","lon":"-1.6642959885309303"},
{"codCNH":"310076","name":"CLINICA SAN MIGUEL","idRegion":"ES220","phone":"948296000","fax":"","beds":72.0,"type":"GENERAL","notes":"","agreement":"SI","lat":"","lon":""},
{"codCNH":"310095","name":"CLÍNICA SAN FERMÍN","idRegion":"ES220","phone":"948235850","fax":"948239941","beds":5.0,"type":"GENERAL","notes":"","agreement":"NO","lat":"40.371562","lon":"-3.6929670589467"},
{"codCNH":"310150","name":"COMPLEJO HOSPITALARIO DE NAVARRA","idRegion":"ES220","phone":"84842222","fax":"848422281","beds":1086.0,"type":"GENERAL","notes":"","agreement":"NO","lat":"42.8050914","lon":"-1.668562493327166"},
{"codCNH":"360010","name":"HOSPITAL UNIVERSITARIO MONTECELO","idRegion":"ES114","phone":"986800000","fax":"986800004","beds":0.0,"type":"GENERAL","notes":"","agreement":"NO","lat":"","lon":""},
{"codCNH":"360025","name":"HOSPITAL PROVINCIAL DE PONTEVEDRA","idRegion":"ES114","phone":"986800000","fax":"986800001","beds":0.0,"type":"GENERAL","notes":"","agreement":"NO","lat":"42.42848835","lon":"-8.637367592749655"},
{"codCNH":"360031","name":"HESTIA SANTA MARIA","idRegion":"ES114","phone":"986856562","fax":"986853619","beds":70.0,"type":"GERIATRÍA Y/O LARGA ESTANCIA","notes":"","agreement":"SI","lat":"","lon":""},
{"codCNH":"360059","name":"HOSPITAL QUIRONSALUD MIGUEL DOMINGUEZ","idRegion":"ES114","phone":"986856800","fax":"986864122","beds":127.0,"type":"GENERAL","notes":"","agreement":"SI","lat":"","lon":""},
{"codCNH":"360340","name":"COMPLEXO HOSPITALARIO UNIVERSITARIO DE PONTEVEDRA","idRegion":"ES114","phone":"986800000","fax":"986800004","beds":605.0,"type":"GENERAL","notes":"","agreement":"NO","lat":"","lon":""},
{"codCNH":"370055","name":"HOSPITAL GENERAL DE LA SANTÍSIMA TRINIDAD","idRegion":"ES415","phone":"923269300","fax":"923269787","beds":106.0,"type":"GENERAL","notes":"","agreement":"SI","lat":"","lon":""},
{"codCNH":"370037","name":"HOSPITAL UNIVERSITARIO DE SALAMANCA","idRegion":"ES415","phone":"923291100","fax":"923291131","beds":0.0,"type":"GENERAL","notes":"","agreement":"NO","lat":"","lon":""},
{"codCNH":"370016","name":"COMPLEJO ASISTENCIAL UNIVERSITARIO DE SALAMANCA","idRegion":"ES415","phone":"923291100","fax":"923291131","beds":914.0,"type":"GENERAL","notes":"","agreement":"NO","lat":"","lon":""},
{"codCNH":"82202","name":"INSTITUT TRASTORN LÍMIT","idRegion":"ES511","phone":"666301013","fax":"","beds":14.0,"type":"PSIQUIÁTRICO","notes":"","agreement":"NO","lat":"","lon":""},
{"codCNH":"380051","name":"HOSPITAL FEBLES CAMPOS","idRegion":"ES709","phone":"922843300","fax":"922241841","beds":258.0,"type":"GERIATRÍA Y/O LARGA ESTANCIA","notes":"","agreement":"SI","lat":"28.470057500000003","lon":"-16.267872211542986"},
{"codCNH":"380064","name":"HOSPITAL SAN JUAN DE DIOS","idRegion":"ES709","phone":"922645511","fax":"922661208","beds":152.0,"type":"GENERAL","notes":"","agreement":"SI","lat":"","lon":""},
{"codCNH":"380103","name":"CLÍNICA PARQUE, S.A.","idRegion":"ES709","phone":"922274400","fax":"922247674","beds":64.0,"type":"GENERAL","notes":"","agreement":"SI","lat":"","lon":""},
{"codCNH":"380295","name":"HOSPITAL RAMBLA S.L.","idRegion":"ES709","phone":"922291600","fax":"922291088","beds":97.0,"type":"GENERAL","notes":"","agreement":"SI","lat":"","lon":""},
{"codCNH":"380048","name":"UNIDADES CLÍNICAS Y DE REHABILITACIÓN DE SALUD MENTAL","idRegion":"ES709","phone":"922678061","fax":"922241841","beds":0.0,"type":"PSIQUIÁTRICO","notes":"","agreement":"NO","lat":"","lon":""},
{"codCNH":"380033","name":"HOSPITAL DE OFRA","idRegion":"ES709","phone":"922602000","fax":"922602466","beds":0.0,"type":"GENERAL","notes":"","agreement":"NO","lat":"28.457151399999997","lon":"-16.290282928628788"},
{"codCNH":"380027","name":"HOSPITAL UNIVERSITARIO NUESTRA SEÑORA DE CANDELARIA","idRegion":"ES709","phone":"922602000","fax":"922602334","beds":0.0,"type":"GENERAL","notes":"","agreement":"NO","lat":"28.448500300000003","lon":"-16.28464280388927"},
{"codCNH":"380012","name":"COMPLEJO HOSPITALARIO UNIVERSITARIO NTRA. SRA. DE CANDELARIA","idRegion":"ES709","phone":"922602000","fax":"922602334","beds":1066.0,"type":"GENERAL","notes":"","agreement":"NO","lat":"","lon":""},
{"codCNH":"380086","name":"HOSPITAL QUIRÓN TENERIFE","idRegion":"ES709","phone":"922280700","fax":"922270908","beds":187.0,"type":"GENERAL","notes":"","agreement":"SI","lat":"","lon":""},
{"codCNH":"390015","name":"HOSPITAL UNIVERSITARIO MARQUÉS DE VALDECILLA","idRegion":"ES130","phone":"942202520","fax":"942202655","beds":923.0,"type":"GENERAL","notes":"","agreement":"NO","lat":"43.45581635","lon":"-3.829504674846112"},
{"codCNH":"390054","name":"HOSPITAL SANTA CLOTILDE - ORDEN HOSPITALARIA SAN JUAN DE DIOS.","idRegion":"ES130","phone":"942217711","fax":"942218711","beds":127.0,"type":"GERIATRÍA Y/O LARGA ESTANCIA","notes":"","agreement":"SI","lat":"","lon":""},
{"codCNH":"390041","name":"HOSPITAL RAMÓN NEGRETE","idRegion":"ES130","phone":"942204100","fax":"942204111","beds":30.0,"type":"TRAUMATOLOGÍA Y/O REHABILITACIÓN","notes":"","agreement":"SI","lat":"","lon":""},
{"codCNH":"390067","name":"CENTRO HOSPITALARIO PADRE MENNI","idRegion":"ES130","phone":"942390060","fax":"942391266","beds":403.0,"type":"PSIQUIÁTRICO","notes":"","agreement":"SI","lat":"43.47713775","lon":"-3.802275864049727"},
{"codCNH":"400019","name":"COMPLEJO ASISTENCIAL DE SEGOVIA","idRegion":"ES416","phone":"921419100","fax":"921419149","beds":375.0,"type":"GENERAL","notes":"","agreement":"NO","lat":"40.94284685","lon":"-4.128734630432394"},
{"codCNH":"400030","name":"HOSPITAL GENERAL DE SEGOVIA","idRegion":"ES416","phone":"921419100","fax":"921419149","beds":0.0,"type":"GENERAL","notes":"","agreement":"NO","lat":"","lon":""},
{"codCNH":"400045","name":"HOSPITAL RECOLETAS SEGOVIA NTRA. SRA. DE LA MISERICORDIA","idRegion":"ES416","phone":"921460115","fax":"921460117","beds":48.0,"type":"GENERAL","notes":"","agreement":"SI","lat":"","lon":""},
{"codCNH":"410042","name":"HOSPITAL VIRGEN MACARENA","idRegion":"ES618","phone":"955008000","fax":"955008021","beds":0.0,"type":"GENERAL","notes":"","agreement":"NO","lat":"","lon":""},
{"codCNH":"410055","name":"HOSPITAL SAN LÁZARO","idRegion":"ES618","phone":"955017800","fax":"955017941","beds":0.0,"type":"GENERAL","notes":"","agreement":"NO","lat":"","lon":""},
{"codCNH":"410074","name":"HOSPITAL VICTORIA EUGENIA DE LA CRUZ ROJA ESPAÑOLA","idRegion":"ES618","phone":"954352082","fax":"954353025","beds":39.0,"type":"GENERAL","notes":"","agreement":"SI","lat":"","lon":""},
{"codCNH":"410080","name":"HOSPITAL SAN JUAN DE DIOS DE SEVILLA","idRegion":"ES618","phone":"954933870","fax":"954933871","beds":47.0,"type":"GENERAL","notes":"","agreement":"SI","lat":"37.3813881","lon":"-5.969162100794513"},
{"codCNH":"410093","name":"HOSPITAL DUQUES DEL INFANTADO","idRegion":"ES618","phone":"955016300","fax":"955016310","beds":0.0,"type":"GENERAL","notes":"","agreement":"NO","lat":"37.36309825","lon":"-5.987915075531994"},
{"codCNH":"410107","name":"CLÍNICA SANTA ISABEL","idRegion":"ES618","phone":"954919000","fax":"954571170","beds":96.0,"type":"GENERAL","notes":"","agreement":"NO","lat":"","lon":""},
{"codCNH":"410114","name":"HOSPITAL QUIRONSALUD SAGRADO CORAZÓN","idRegion":"ES618","phone":"954937676","fax":"954628155","beds":147.0,"type":"GENERAL","notes":"","agreement":"NO","lat":"","lon":""},
{"codCNH":"410129","name":"HOSPITAL FÁTIMA","idRegion":"ES618","phone":"954613300","fax":"955040362","beds":73.0,"type":"GENERAL","notes":"","agreement":"NO","lat":"37.3686476","lon":"-5.988070686292176"},
{"codCNH":"410135","name":"HOSPITAL QUIRONSALUD INFANTA LUISA","idRegion":"ES618","phone":"954330100","fax":"954001824","beds":139.0,"type":"GENERAL","notes":"","agreement":"NO","lat":"","lon":""},
{"codCNH":"410191","name":"CLÍNICA NUESTRA SEÑORA DE ARÁNZAZU","idRegion":"ES618","phone":"954382110","fax":"954907675","beds":10.0,"type":"QUIRÚRGICO","notes":"","agreement":"NO","lat":"","lon":""},
{"codCNH":"410325","name":"FREMAP, HOSPITAL Y CENTRO DE REHABILITACIÓN DE SEVILLA","idRegion":"ES618","phone":"954249102","fax":"954249283","beds":102.0,"type":"TRAUMATOLOGÍA Y/O REHABILITACIÓN","notes":"","agreement":"NO","lat":"","lon":""},
{"codCNH":"410346","name":"HOSPITAL PSIQUIÁTRICO PENITENCIARIO","idRegion":"ES618","phone":"955616666","fax":"955614300","beds":26.0,"type":"PSIQUIÁTRICO","notes":"","agreement":"NO","lat":"38.350073200000004","lon":"-0.563469"},
{"codCNH":"410016","name":"HOSPITAL GENERAL DEL H.U. VIRGEN DEL ROCÍO","idRegion":"ES618","phone":"955012000","fax":"955013465","beds":0.0,"type":"GENERAL","notes":"","agreement":"NO","lat":"","lon":""},
{"codCNH":"410021","name":"HOSPITAL VIRGEN DE VALME","idRegion":"ES618","phone":"955015000","fax":"955015143","beds":0.0,"type":"GENERAL","notes":"","agreement":"NO","lat":"","lon":""},
{"codCNH":"410409","name":"HOSPITAL VIAMED SANTA ÁNGELA DE LA CRUZ","idRegion":"ES618","phone":"954032000","fax":"954032001","beds":105.0,"type":"GENERAL","notes":"","agreement":"NO","lat":"","lon":""},
{"codCNH":"410286","name":"HOSPITAL UNIVERSITARIO VIRGEN DEL ROCÍO","idRegion":"ES618","phone":"955013466","fax":"955013465","beds":1350.0,"type":"GENERAL","notes":"","agreement":"NO","lat":"37.362950399999995","lon":"-5.978930232248762"},
{"codCNH":"410443","name":"HOSPITAL DE REHABILITACIÓN Y TRAUMATOLOGÍA VIRGEN DEL ROCÍO","idRegion":"ES618","phone":"955012000","fax":"955013473","beds":0.0,"type":"TRAUMATOLOGÍA Y/O REHABILITACIÓN","notes":"","agreement":"NO","lat":"","lon":""},
{"codCNH":"410465","name":"HOSPITAL INFANTIL","idRegion":"ES618","phone":"955012000","fax":"955013473","beds":0.0,"type":"INFANTIL","notes":"","agreement":"NO","lat":"","lon":""},
{"codCNH":"410476","name":"HOSPITAL DE LA MUJER","idRegion":"ES618","phone":"955012000","fax":"955013473","beds":0.0,"type":"GENERAL","notes":"","agreement":"NO","lat":"37.36311920000001","lon":"-5.978212645844351"},
{"codCNH":"410303","name":"HOSPITAL UNIVERSITARIO VIRGEN DE VALME","idRegion":"ES618","phone":"955015160","fax":"955015186","beds":617.0,"type":"GENERAL","notes":"","agreement":"NO","lat":"37.318824600000006","lon":"-5.971218203465228"},
{"codCNH":"410299","name":"HOSPITAL UNIVERSITARIO VIRGEN MACARENA","idRegion":"ES618","phone":"955008000","fax":"955008021","beds":960.0,"type":"GENERAL","notes":"","agreement":"NO","lat":"37.40675795","lon":"-5.986849978407201"},
{"codCNH":"420026","name":"HOSPITAL VIRGEN DEL MIRÓN","idRegion":"ES417","phone":"975220850","fax":"975220547","beds":0.0,"type":"GERIATRÍA Y/O LARGA ESTANCIA","notes":"","agreement":"NO","lat":"41.771356700000005","lon":"-2.463883230133096"},
{"codCNH":"420040","name":"COMPLEJO ASISTENCIAL DE SORIA","idRegion":"ES417","phone":"975234300","fax":"975234305","beds":319.0,"type":"GENERAL","notes":"","agreement":"NO","lat":"","lon":""},
{"codCNH":"420011","name":"HOSPITAL SANTA BÁRBARA","idRegion":"ES417","phone":"975234300","fax":"975234305","beds":0.0,"type":"GENERAL","notes":"","agreement":"NO","lat":"41.77195705","lon":"-2.471252159575303"},
{"codCNH":"430022","name":"HOSPITAL SOCIOSANITARI FRANCOLÍ","idRegion":"ES514","phone":"977232714","fax":"977237844","beds":156.0,"type":"GERIATRÍA Y/O LARGA ESTANCIA","notes":"","agreement":"NO","lat":"41.12497555","lon":"1.2391452645069752"},
{"codCNH":"430043","name":"HOSPITAL DE SANT PAU I SANTA TECLA","idRegion":"ES514","phone":"977259900","fax":"977234942","beds":186.0,"type":"GENERAL","notes":"","agreement":"","lat":"41.116038399999994","lon":"1.2545976295496897"},
{"codCNH":"430017","name":"HOSPITAL UNIVERSITARI JOAN XXIII DE TARRAGONA","idRegion":"ES514","phone":"977295800","fax":"977224011","beds":372.0,"type":"GENERAL","notes":"","agreement":"","lat":"","lon":""},
{"codCNH":"430322","name":"RESIDÈNCIA SANTA TECLA PONENT","idRegion":"ES514","phone":"977540678","fax":"977922011","beds":70.0,"type":"GERIATRÍA Y/O LARGA ESTANCIA","notes":"","agreement":"NO","lat":"","lon":""},
{"codCNH":"430265","name":"CENTRE SOCIOSANITARI LLEVANT","idRegion":"ES514","phone":"977239412","fax":"977236628","beds":60.0,"type":"GERIATRÍA Y/O LARGA ESTANCIA","notes":"","agreement":"NO","lat":"41.121941299999996","lon":"1.2670169"},
{"codCNH":"430069","name":"CLÍNICA ACTIVA MÚTUA 2008","idRegion":"ES514","phone":"977217900","fax":"977230716","beds":22.0,"type":"OTROS MONOGRÁFICOS","notes":"","agreement":"NO","lat":"37.37459260000001","lon":"-5.9957492"},
{"codCNH":"430056","name":"HOSPITAL VIAMED MONEGAL","idRegion":"ES514","phone":"977225012","fax":"977244568","beds":53.0,"type":"GENERAL","notes":"","agreement":"NO","lat":"","lon":""},
{"codCNH":"440012","name":"HOSPITAL OBISPO POLANCO","idRegion":"ES242","phone":"978654000","fax":"978654195","beds":215.0,"type":"GENERAL","notes":"","agreement":"NO","lat":"40.333079600000005","lon":"-1.1068770452114851"},
{"codCNH":"440033","name":"CENTRO DE REHABILITACION PSICOSOCIAL SAN JUAN DE DIOS","idRegion":"ES242","phone":"978654040","fax":"978654041","beds":150.0,"type":"PSIQUIÁTRICO","notes":"","agreement":"NO","lat":"","lon":""},
{"codCNH":"440027","name":"HOSPITAL SAN JOSÉ","idRegion":"ES242","phone":"978654070","fax":"978654071","beds":50.0,"type":"GERIATRÍA Y/O LARGA ESTANCIA","notes":"","agreement":"NO","lat":"","lon":""},
{"codCNH":"450133","name":"CENTRO DE TRAT. DE DROGODEP. \"EL ALBA\"","idRegion":"ES425","phone":"925216154","fax":"925216250","beds":30.0,"type":"OTRA FINALIDAD","notes":"","agreement":"NO","lat":"","lon":""},
{"codCNH":"450122","name":"QUIRÓN SALUD TOLEDO","idRegion":"ES425","phone":"925266100","fax":"925266104","beds":80.0,"type":"MÉDICO-QUIRÚRGICO","notes":"","agreement":"SI","lat":"","lon":""},
{"codCNH":"450113","name":"HOSPITAL LABORAL SOLIMAT MUTUA COLABORADORA CON LA SS Nº 72","idRegion":"ES425","phone":"925215267","fax":"925215254","beds":10.0,"type":"TRAUMATOLOGÍA Y/O REHABILITACIÓN","notes":"","agreement":"NO","lat":"","lon":""},
{"codCNH":"450092","name":"COMPLEJO HOSPITALARIO DE TOLEDO","idRegion":"ES425","phone":"925269200","fax":"925214836","beds":953.0,"type":"GENERAL","notes":"","agreement":"NO","lat":"","lon":""},
{"codCNH":"450041","name":"HOSPITAL PROVINCIAL NUESTRA SEÑORA DE LA MISERICORDIA","idRegion":"ES425","phone":"925259350","fax":"925259360","beds":0.0,"type":"GENERAL","notes":"","agreement":"NO","lat":"","lon":""},
{"codCNH":"450036","name":"HOSPITAL NACIONAL DE PARAPLÉJICOS","idRegion":"ES425","phone":"925247700","fax":"925247745","beds":210.0,"type":"TRAUMATOLOGÍA Y/O REHABILITACIÓN","notes":"","agreement":"NO","lat":"","lon":""},
{"codCNH":"450020","name":"HOSPITAL GERIÁTRICO VIRGEN DEL VALLE","idRegion":"ES425","phone":"925269300","fax":"925269355","beds":0.0,"type":"GERIATRÍA Y/O LARGA ESTANCIA","notes":"","agreement":"NO","lat":"","lon":""},
{"codCNH":"450015","name":"HOSPITAL VIRGEN DE LA SALUD","idRegion":"ES425","phone":"925269200","fax":"925214836","beds":0.0,"type":"GENERAL","notes":"","agreement":"NO","lat":"39.8714711","lon":"-4.035046834817454"},
{"codCNH":"460116","name":"HOSPITAL VIRGEN DEL CONSUELO","idRegion":"ES523","phone":"963177800","fax":"963177870","beds":156.0,"type":"GENERAL","notes":"","agreement":"SI","lat":"","lon":""},
{"codCNH":"460137","name":"HOSPITAL QUIRÓN VALENCIA","idRegion":"ES523","phone":"963690600","fax":"963931706","beds":88.0,"type":"GENERAL","notes":"","agreement":"SI","lat":"39.478249600000005","lon":"-0.36412540000000004"},
{"codCNH":"460018","name":"HOSPITAL UNIVERSITARIO Y POLITÉCNICO LA FE","idRegion":"ES523","phone":"961244000","fax":"961245746","beds":1000.0,"type":"GENERAL","notes":"","agreement":"NO","lat":"","lon":""},
{"codCNH":"460023","name":"HOSPITAL UNIVERSITARIO DR. PESET ALEIXANDRE","idRegion":"ES523","phone":"961622300","fax":"961622501","beds":539.0,"type":"GENERAL","notes":"","agreement":"NO","lat":"","lon":""},
{"codCNH":"460039","name":"HOSPITAL ARNAU DE VILANOVA","idRegion":"ES523","phone":"961976000","fax":"","beds":302.0,"type":"GENERAL","notes":"","agreement":"NO","lat":"41.62645155","lon":"0.6126824875765899"},
{"codCNH":"460369","name":"HOSPITAL PARE JOFRÉ","idRegion":"ES523","phone":"961925200","fax":"961925208","beds":125.0,"type":"GERIATRÍA Y/O LARGA ESTANCIA","notes":"","agreement":"NO","lat":"39.4677401","lon":"-0.3814758"},
{"codCNH":"460044","name":"HOSPITAL CLÍNICO UNIVERSITARIO DE VALENCIA","idRegion":"ES523","phone":"961973500","fax":"961973694","beds":582.0,"type":"GENERAL","notes":"","agreement":"NO","lat":"39.47898265","lon":"-0.3619728488623393"},
{"codCNH":"460291","name":"HOSPITAL 9 DE OCTUBRE","idRegion":"ES523","phone":"963179100","fax":"963460033","beds":300.0,"type":"GENERAL","notes":"","agreement":"SI","lat":"39.4778549","lon":"-0.4013248736191855"},
{"codCNH":"460109","name":"FUNDACIÓN INSTITUTO VALENCIANO DE ONCOLOGÍA","idRegion":"ES523","phone":"961114000","fax":"961114001","beds":160.0,"type":"ONCOLÓGICO","notes":"","agreement":"SI","lat":"","lon":""},
{"codCNH":"460095","name":"HOSPITAL NISA VALENCIA AL MAR","idRegion":"ES523","phone":"963352500","fax":"963352501","beds":70.0,"type":"GENERAL","notes":"","agreement":"SI","lat":"","lon":""},
{"codCNH":"460082","name":"HOSPITAL CATÓLICO CASA DE SALUD","idRegion":"ES523","phone":"963897700","fax":"963692635","beds":192.0,"type":"GENERAL","notes":"","agreement":"NO","lat":"","lon":""},
{"codCNH":"460060","name":"CONSORCIO HOSPITAL GENERAL UNIVERSITARIO DE VALENCIA","idRegion":"ES523","phone":"963131813","fax":"963131863","beds":546.0,"type":"GENERAL","notes":"","agreement":"NO","lat":"","lon":""},
{"codCNH":"460057","name":"HOSPITAL DE LA MALVA-ROSA","idRegion":"ES523","phone":"961925400","fax":"961925433","beds":33.0,"type":"QUIRÚRGICO","notes":"","agreement":"NO","lat":"39.4802716","lon":"-0.32848190000000005"},
{"codCNH":"460348","name":"CLINICA FONTANA","idRegion":"ES523","phone":"963410600","fax":"","beds":7.0,"type":"QUIRÚRGICO","notes":"","agreement":"NO","lat":"","lon":""},
{"codCNH":"470029","name":"HOSPITAL CLÍNICO UNIVERSITARIO DE VALLADOLID","idRegion":"ES418","phone":"983420000","fax":"983257511","beds":777.0,"type":"GENERAL","notes":"","agreement":"NO","lat":"41.65600575000001","lon":"-4.718737949587745"},
{"codCNH":"470014","name":"HOSPITAL UNIVERSITARIO RIO HORTEGA","idRegion":"ES418","phone":"983420400","fax":"983215365","beds":606.0,"type":"GENERAL","notes":"","agreement":"NO","lat":"41.6296811","lon":"-4.7138686481349055"},
{"codCNH":"470053","name":"SANATORIO SAGRADO CORAZÓN","idRegion":"ES418","phone":"983299000","fax":"983292731","beds":75.0,"type":"GENERAL","notes":"","agreement":"SI","lat":"","lon":""},
{"codCNH":"470072","name":"CENTRO HOSPITALARIO BENITO MENNI","idRegion":"ES418","phone":"983272600","fax":"983477557","beds":240.0,"type":"REHABILITACIÓN PSICOFÍSICA","notes":"","agreement":"SI","lat":"41.62779285","lon":"-4.722582926373626"},
{"codCNH":"470105","name":"HOSPITAL DE VALLADOLID FELIPE II","idRegion":"ES418","phone":"983358000","fax":"983374940","beds":79.0,"type":"GENERAL","notes":"","agreement":"SI","lat":"41.657001","lon":"-4.72549065"},
{"codCNH":"470113","name":"HOSPITAL CAMPO GRANDE","idRegion":"ES418","phone":"983135555","fax":"983144234","beds":93.0,"type":"GENERAL","notes":"","agreement":"SI","lat":"","lon":""},
{"codCNH":"10090","name":"HOSPITAL UNIVERSITARIO DE ARABA (SEDE TXAGORRITXU Y SEDE SANTIAGO)","idRegion":"ES211","phone":"945007000","fax":"945007359","beds":811.0,"type":"GENERAL","notes":"","agreement":"NO","lat":"","lon":""},
{"codCNH":"10066","name":"HOSPITAL DE CUIDADOS SAN ONOFRE, S.L. (HOSPITAL DE CUIDADOS SAN ONOFRE)","idRegion":"ES211","phone":"945142100","fax":"945143318","beds":82.0,"type":"GERIATRÍA Y/O LARGA ESTANCIA","notes":"","agreement":"SI","lat":"","lon":""},
{"codCNH":"10053","name":"HOSPITAL QUIRÓNSALUD VITORIA","idRegion":"ES211","phone":"945252500","fax":"945279260","beds":26.0,"type":"GENERAL","notes":"","agreement":"SI","lat":"","lon":""},
{"codCNH":"10040","name":"HOSPITAL SAN JOSÉ","idRegion":"ES211","phone":"945140900","fax":"945145709","beds":63.0,"type":"MÉDICO-QUIRÚRGICO","notes":"","agreement":"NO","lat":"","lon":""},
{"codCNH":"10035","name":"RED DE SALUD MENTAL DE ARABA (HOSPITAL PSIQUIÁTRICO DE ARABA)","idRegion":"ES211","phone":"945006555","fax":"945006587","beds":207.0,"type":"PSIQUIÁTRICO","notes":"","agreement":"NO","lat":"","lon":""},
{"codCNH":"490028","name":"HOSPITAL PROVINCIAL DE ZAMORA","idRegion":"ES419","phone":"980520200","fax":"980521468","beds":0.0,"type":"GENERAL","notes":"","agreement":"SI","lat":"41.511464","lon":"-5.728405522577139"},
{"codCNH":"490081","name":"HOSPITAL RECOLETAS DE ZAMORA","idRegion":"ES419","phone":"980545300","fax":"980545309","beds":44.0,"type":"GENERAL","notes":"","agreement":"SI","lat":"","lon":""},
{"codCNH":"490070","name":"COMPLEJO ASISTENCIAL DE ZAMORA","idRegion":"ES419","phone":"980548200","fax":"980512838","beds":540.0,"type":"GENERAL","notes":"","agreement":"SI","lat":"","lon":""},
{"codCNH":"490013","name":"HOSPITAL VIRGEN DE LA CONCHA","idRegion":"ES419","phone":"980548200","fax":"980512838","beds":0.0,"type":"GENERAL","notes":"","agreement":"SI","lat":"41.5141892","lon":"-5.732231867307809"},
{"codCNH":"500114","name":"HOSPITAL SAN JUAN DE DIOS","idRegion":"ES243","phone":"976271660","fax":"976015872","beds":184.0,"type":"GERIATRÍA Y/O LARGA ESTANCIA","notes":"","agreement":"SI","lat":"","lon":""},
{"codCNH":"500107","name":"CENTRO NEUROPSIQUIÁTRICO NUESTRA SEÑORA DEL CARMEN","idRegion":"ES243","phone":"976770635","fax":"976770943","beds":277.0,"type":"PSIQUIÁTRICO","notes":"","agreement":"SI","lat":"41.6776051","lon":"-0.9868003371358072"},
{"codCNH":"500093","name":"CLÍNICA MONTPELIER GRUPO HLA, S.A.U","idRegion":"ES243","phone":"976765400","fax":"976752140","beds":90.0,"type":"GENERAL","notes":"","agreement":"SI","lat":"","lon":""},
{"codCNH":"500080","name":"HOSPITAL MAZ","idRegion":"ES243","phone":"976748000","fax":"976748044","beds":107.0,"type":"GENERAL","notes":"","agreement":"SI","lat":"41.685222499999995","lon":"-0.8700029"},
{"codCNH":"500074","name":"HOSPITAL  NUESTRA SEÑORA DE GRACIA","idRegion":"ES243","phone":"976440022","fax":"876764554","beds":151.0,"type":"GENERAL","notes":"","agreement":"NO","lat":"","lon":""},
{"codCNH":"500068","name":"CENTRO DE REHABILITACION PSICOSOCIAL NUESTRA SEÑORA DEL PILAR","idRegion":"ES243","phone":"976331500","fax":"876764209","beds":172.0,"type":"PSIQUIÁTRICO","notes":"","agreement":"NO","lat":"","lon":""},
{"codCNH":"500055","name":"HOSPITAL ROYO VILLANOVA","idRegion":"ES243","phone":"976466910","fax":"976466068","beds":254.0,"type":"GENERAL","notes":"","agreement":"NO","lat":"41.6929","lon":"-0.8606564"},
{"codCNH":"500021","name":"HOSPITAL UNIVERSITARIO MIGUEL SERVET","idRegion":"ES243","phone":"976765500","fax":"976566234","beds":1213.0,"type":"GENERAL","notes":"","agreement":"NO","lat":"41.63455725","lon":"-0.8997979456424299"},
{"codCNH":"500016","name":"HOSPITAL CLÍNICO UNIVERSITARIO LOZANO BLESA","idRegion":"ES243","phone":"976765700","fax":"976565995","beds":807.0,"type":"GENERAL","notes":"","agreement":"NO","lat":"41.64327125","lon":"-0.9034070791646488"},
{"codCNH":"500218","name":"HOSPITAL VIAMED MONTECANAL","idRegion":"ES243","phone":"876241818","fax":"876241822","beds":68.0,"type":"GENERAL","notes":"","agreement":"SI","lat":"41.63891715","lon":"-0.9494186469447172"},
{"codCNH":"500129","name":"HOSPITAL QUIRONSALUD ZARAGOZA","idRegion":"ES243","phone":"976720000","fax":"976720009","beds":104.0,"type":"GENERAL","notes":"","agreement":"SI","lat":"","lon":""},
{"codCNH":"500135","name":"CLÍNICA NUESTRA SEÑORA DEL PILAR","idRegion":"ES243","phone":"976275700","fax":"976374087","beds":34.0,"type":"GENERAL","notes":"","agreement":"SI","lat":"","lon":""},
{"codCNH":"500140","name":"HOSPITAL GENERAL DE LA DEFENSA DE ZARAGOZA","idRegion":"ES243","phone":"976305000","fax":"976305070","beds":200.0,"type":"GENERAL","notes":"","agreement":"SI","lat":"41.6300742","lon":"-0.9045935422800198"},
{"codCNH":"500195","name":"HOSPITAL DE REHABILITACION PSIQUIATRICA PRISMA","idRegion":"ES243","phone":"976151152","fax":"976151153","beds":50.0,"type":"PSIQUIÁTRICO","notes":"","agreement":"NO","lat":"","lon":""},
{"codCNH":"500188","name":"UNIDAD REHABILITADORA DE MEDIA ESTANCIA PROFESOR REY ARDID","idRegion":"ES243","phone":"976731000","fax":"976730719","beds":39.0,"type":"PSIQUIÁTRICO","notes":"","agreement":"SI","lat":"","lon":""}
]
