[
{"codCNH":"380282","name":"HOSPITAL QUIRÓN COSTA ADEJE","idRegion":"ES709","phone":"922752626","fax":"922796570","beds":62.0,"type":"GENERAL","notes":"","agreement":"NO","lat":"28.07443035","lon":"-16.72977275555476"},
{"codCNH":"260110","name":"CENTRO ASISTENCIAL DE ALBELDA DE IREGUA","idRegion":"ES230","phone":"941279220","fax":"941279209","beds":140.0,"type":"PSIQUIÁTRICO","notes":"","agreement":"NO","lat":"","lon":""},
{"codCNH":"120160","name":"SERVICIOS SANITARIOS DEL CENTRO PENITENCIARIO DE CASTELLÓN II (ALBOCÀSSER)","idRegion":"ES522","phone":"964158500","fax":"964158536","beds":64.0,"type":"OTRA FINALIDAD","notes":"","agreement":"NO","lat":"","lon":""},
{"codCNH":"410227","name":"HOSPITAL EL TOMILLAR","idRegion":"ES618","phone":"955016000","fax":"955016032","beds":0.0,"type":"GENERAL","notes":"","agreement":"NO","lat":"37.29821355","lon":"-5.900841711054524"},
{"codCNH":"280745","name":"HOSPITAL UNIVERSITARIO PRÍNCIPE DE ASTURIAS","idRegion":"ES300","phone":"918878100","fax":"918801825","beds":507.0,"type":"GENERAL","notes":"","agreement":"NO","lat":"40.51012885","lon":"-3.347488080533651"},
{"codCNH":"281371","name":"HM VALLES","idRegion":"ES300","phone":"917374353","fax":"912805932","beds":20.0,"type":"OTRA FINALIDAD","notes":"","agreement":"SI","lat":"","lon":""},
{"codCNH":"230184","name":"HOSPITAL DE ALTA RESOLUCIÓN DE ALCALÁ LA REAL","idRegion":"ES616","phone":"953599008","fax":"953599058","beds":28.0,"type":"GENERAL","notes":"","agreement":"NO","lat":"37.4542646","lon":"-3.9314382856966112"},
{"codCNH":"300119","name":"CLÍNICA MÉDICO-QUIRÚRGICA SAN JOSÉ, S.A.","idRegion":"ES620","phone":"968800600","fax":"968800347","beds":139.0,"type":"MÉDICO-QUIRÚRGICO","notes":"","agreement":"SI","lat":"","lon":""},
{"codCNH":"440048","name":"HOSPITAL DE ALCAÑIZ","idRegion":"ES242","phone":"978830100","fax":"978830977","beds":131.0,"type":"GENERAL","notes":"","agreement":"NO","lat":"41.050253999999995","lon":"-0.1329565"},
{"codCNH":"230173","name":"HOSPITAL DE ALTA RESOLUCIÓN DE ALCAUDETE","idRegion":"ES616","phone":"953368211","fax":"953368287","beds":16.0,"type":"GENERAL","notes":"","agreement":"NO","lat":"","lon":""},
{"codCNH":"130052","name":"HOSPITAL GENERAL LA MANCHA CENTRO","idRegion":"ES422","phone":"926580500","fax":"926547700","beds":353.0,"type":"GENERAL","notes":"","agreement":"NO","lat":"40.3614274","lon":"-2.8541895"},
{"codCNH":"281071","name":"HOSPITAL UNIVERSITARIO FUNDACIÓN ALCORCÓN","idRegion":"ES300","phone":"916219400","fax":"916219902","beds":400.0,"type":"GENERAL","notes":"","agreement":"NO","lat":"","lon":""},
{"codCNH":"281124","name":"HOSPITAL QUIRONSALUD SUR","idRegion":"ES300","phone":"916496600","fax":"916496604","beds":81.0,"type":"MÉDICO-QUIRÚRGICO","notes":"","agreement":"SI","lat":"40.34289695","lon":"-3.849272988446331"},
{"codCNH":"30089","name":"SANATORIO SAN JORGE S.L.","idRegion":"ES521","phone":"965330400","fax":"965330400","beds":26.0,"type":"GENERAL","notes":"","agreement":"SI","lat":"","lon":""},
{"codCNH":"30067","name":"HOSPITAL VIRGEN DE LOS LIRIOS","idRegion":"ES521","phone":"965537400","fax":"965537448","beds":305.0,"type":"GENERAL","notes":"","agreement":"NO","lat":"","lon":""},
{"codCNH":"81192","name":"CENTRE SOCIOSANITARI CAN TORRAS","idRegion":"ES511","phone":"935551994","fax":"935555559","beds":119.0,"type":"GERIATRÍA Y/O LARGA ESTANCIA","notes":"","agreement":"NO","lat":"","lon":""},
{"codCNH":"110259","name":"HOSPITAL PUNTA DE EUROPA","idRegion":"ES612","phone":"956025000","fax":"956025057","beds":327.0,"type":"GENERAL","notes":"","agreement":"NO","lat":"37.205388299999996","lon":"-5.3195356"},
{"codCNH":"250210","name":"SANT JOAN DE DÉU TERRES DE LLEIDA","idRegion":"ES513","phone":"973740010","fax":"973741193","beds":29.0,"type":"PSIQUIÁTRICO","notes":"","agreement":"NO","lat":"","lon":""},
{"codCNH":"20136","name":"HOSPITAL GENERAL DE ALMANSA","idRegion":"ES421","phone":"967339526","fax":"967339546","beds":93.0,"type":"GENERAL","notes":"","agreement":"NO","lat":"38.87948905","lon":"-1.093931250703585"},
{"codCNH":"60080","name":"HOSPITAL \"FUNDACIÓN SAN JUAN DE DIOS DE EXTREMADURA\"","idRegion":"ES431","phone":"924670017","fax":"924662805","beds":105.0,"type":"GERIATRÍA Y/O LARGA ESTANCIA","notes":"","agreement":"SI","lat":"","lon":""},
{"codCNH":"60242","name":"HOSPITAL TIERRA DE BARROS","idRegion":"ES431","phone":"924699200","fax":"924699214","beds":0.0,"type":"GENERAL","notes":"","agreement":"NO","lat":"38.65578645","lon":"-6.376803332984852"},
{"codCNH":"250175","name":"RESIDÈNCIA TERRAFERMA","idRegion":"ES513","phone":"973737455","fax":"973737001","beds":137.0,"type":"GERIATRÍA Y/O LARGA ESTANCIA","notes":"","agreement":"NO","lat":"","lon":""},
{"codCNH":"310142","name":"CLÍNICA PSICOGERIÁTRICA JOSEFINA ARREGUI","idRegion":"ES220","phone":"948563850","fax":"948563961","beds":21.0,"type":"PSIQUIÁTRICO","notes":"","agreement":"SI","lat":"42.89870065","lon":"-2.1715503458831886"},
{"codCNH":"460351","name":"HOSPITAL UNIVERSITARIO DE LA RIBERA","idRegion":"ES523","phone":"962458100","fax":"962458159","beds":301.0,"type":"GENERAL","notes":"","agreement":"NO","lat":"39.159488399999994","lon":"-0.4159720469745212"},
{"codCNH":"81350","name":"CENTRE POLIVALENT CAN FOSC","idRegion":"ES511","phone":"938432786","fax":"","beds":56.0,"type":"GERIATRÍA Y/O LARGA ESTANCIA","notes":"","agreement":"NO","lat":"","lon":""},
{"codCNH":"430252","name":"HOSPITAL COMARCAL D'AMPOSTA","idRegion":"ES514","phone":"977700050","fax":"977702894","beds":88.0,"type":"GENERAL","notes":"","agreement":"","lat":"40.706817799999996","lon":"0.5806326"},
{"codCNH":"430287","name":"UNITAT POLIVALENT EN SALUT MENTAL D'AMPOSTA","idRegion":"ES514","phone":"977338565","fax":"","beds":127.0,"type":"PSIQUIÁTRICO","notes":"","agreement":"NO","lat":"","lon":""},
{"codCNH":"230145","name":"HOSPITAL ALTO GUADALQUIVIR","idRegion":"ES616","phone":"953021575","fax":"953021405","beds":67.0,"type":"GENERAL","notes":"Empresa Pública","agreement":"NO","lat":"38.04019925","lon":"-4.0308082966568906"},
{"codCNH":"290154","name":"HOSPITAL DE ANTEQUERA","idRegion":"ES617","phone":"951061008","fax":"951291009","beds":159.0,"type":"GENERAL","notes":"","agreement":"NO","lat":"37.0183652","lon":"-4.5596649000000005"},
{"codCNH":"90079","name":"HOSPITAL SANTOS REYES","idRegion":"ES412","phone":"947522000","fax":"947522012","beds":123.0,"type":"GENERAL","notes":"","agreement":"NO","lat":"41.66964395","lon":"-3.6915981445347117"},
{"codCNH":"90085","name":"HOSPITAL RESIDENCIA ASISTIDA DE LA LUZ","idRegion":"ES412","phone":"947500150","fax":"947507583","beds":75.0,"type":"GERIATRÍA Y/O LARGA ESTANCIA","notes":"","agreement":"SI","lat":"","lon":""},
{"codCNH":"281292","name":"HOSPITAL UNIVERSITARIO DEL TAJO","idRegion":"ES300","phone":"918014101","fax":"918014302","beds":98.0,"type":"GENERAL","notes":"","agreement":"NO","lat":"","lon":""},
{"codCNH":"81616","name":"COMUNITAT TERAPÈUTICA ARENYS DE MUNT","idRegion":"ES511","phone":"937938006","fax":"937951037","beds":42.0,"type":"PSIQUIÁTRICO","notes":"","agreement":"NO","lat":"","lon":""},
{"codCNH":"50072","name":"HOSPITAL DE SALUD MENTAL CASTA SALUD ARÉVALO","idRegion":"ES411","phone":"920301400","fax":"920300951","beds":80.0,"type":"PSIQUIÁTRICO","notes":"","agreement":"SI","lat":"","lon":""},
{"codCNH":"281281","name":"HOSPITAL UNIVERSITARIO DEL SURESTE","idRegion":"ES300","phone":"918394454","fax":"918394278","beds":132.0,"type":"GENERAL","notes":"","agreement":"NO","lat":"","lon":""},
{"codCNH":"81568","name":"ITA MARESME","idRegion":"ES511","phone":"937530062","fax":"937533288","beds":77.0,"type":"OTROS MONOGRÁFICOS","notes":"","agreement":"NO","lat":"41.54705145","lon":"2.3992675917026003"},
{"codCNH":"82213","name":"CENTRE D'HOSPITALITZACIÓ I HOSPITAL DE DIA TRASTORNS DE LA CONDUCTA","idRegion":"ES511","phone":"937533006","fax":"937533288","beds":40.0,"type":"PSIQUIÁTRICO","notes":"","agreement":"NO","lat":"","lon":""},
{"codCNH":"380348","name":"HOSPITAL DEL SUR","idRegion":"ES709","phone":"922174740","fax":"922174743","beds":0.0,"type":"GENERAL","notes":"","agreement":"NO","lat":"28.06912245","lon":"-16.705016866108814"},
{"codCNH":"380146","name":"HOSPITEN SUR","idRegion":"ES709","phone":"922750022","fax":"922793618","beds":242.0,"type":"GENERAL","notes":"","agreement":"SI","lat":"28.058582450000007","lon":"-16.72487357452235"},
{"codCNH":"200185","name":"ORGANIZACIÓN SANITARIA INTEGRADA ALTO DEBA","idRegion":"ES212","phone":"943035300","fax":"943035314","beds":90.0,"type":"GENERAL","notes":"","agreement":"NO","lat":"","lon":""},
{"codCNH":"200202","name":"HOSPITAL PSIQUIÁTRICO SAN JUAN DE DIOS","idRegion":"","phone":"943793900","fax":"943770719","beds":299.0,"type":"PSIQUIÁTRICO","notes":"","agreement":"SI","lat":"","lon":""},
{"codCNH":"200198","name":"HOSPITAL AITA MENNI","idRegion":"","phone":"943794411","fax":"943796161","beds":442.0,"type":"PSIQUIÁTRICO","notes":"","agreement":"SI","lat":"43.062727200000005","lon":"-2.5294037"},
{"codCNH":"350249","name":"HOSPITAL INSULAR DE LANZAROTE","idRegion":"ES708","phone":"928810000","fax":"928812263","beds":80.0,"type":"GERIATRÍA Y/O LARGA ESTANCIA","notes":"","agreement":"SI","lat":"28.963537699999996","lon":"-13.543453570997048"},
{"codCNH":"350228","name":"HOSPITAL DOCTOR JOSÉ MOLINA OROSA","idRegion":"ES708","phone":"928595103","fax":"928815034","beds":292.0,"type":"GENERAL","notes":"","agreement":"NO","lat":"","lon":""},
{"codCNH":"330100","name":"HOSPITAL  UNIVERSITARIO \"SAN AGUSTÍN\"","idRegion":"ES120","phone":"985123000","fax":"985123010","beds":436.0,"type":"GENERAL","notes":"","agreement":"NO","lat":"40.6192498","lon":"-3.152988"},
{"codCNH":"330117","name":"FUNDACIÓN HOSPITAL DE AVILÉS","idRegion":"ES120","phone":"985563954","fax":"985525236","beds":90.0,"type":"MÉDICO-QUIRÚRGICO","notes":"","agreement":"SI","lat":"43.55461725","lon":"-5.926359490561223"},
{"codCNH":"80667","name":"HOSPITAL UNIVERSITARI GERMANS TRIAS I PUJOL DE BADALONA","idRegion":"ES511","phone":"934651200","fax":"934978843","beds":516.0,"type":"GENERAL","notes":"","agreement":"","lat":"41.4810542","lon":"2.2381723732976044"},
{"codCNH":"80689","name":"CENTRE SOCIOSANITARI EL CARME","idRegion":"ES511","phone":"935074710","fax":"934644905","beds":210.0,"type":"GERIATRÍA Y/O LARGA ESTANCIA","notes":"","agreement":"NO","lat":"41.4591142","lon":"2.2313871226874964"},
{"codCNH":"81694","name":"INSTITUT CATALÀ D'ONCOLOGIA - HOSPITAL GERMANS TRIAS I PUJOL","idRegion":"ES511","phone":"934651200","fax":"934978843","beds":36.0,"type":"ONCOLÓGICO","notes":"","agreement":"","lat":"","lon":""},
{"codCNH":"80673","name":"HOSPITAL MUNICIPAL DE BADALONA","idRegion":"ES511","phone":"934648300","fax":"934648391","beds":140.0,"type":"GENERAL","notes":"","agreement":"","lat":"","lon":""},
{"codCNH":"80333","name":"INSTITUT GUTTMANN","idRegion":"ES511","phone":"934977700","fax":"934977707","beds":152.0,"type":"TRAUMATOLOGÍA Y/O REHABILITACIÓN","notes":"","agreement":"","lat":"41.478879000000006","lon":"2.236995354630269"},
{"codCNH":"250169","name":"HESTIA BALAGUER.","idRegion":"ES513","phone":"973450304","fax":"973451321","beds":120.0,"type":"GERIATRÍA Y/O LARGA ESTANCIA","notes":"","agreement":"NO","lat":"41.78901315","lon":"0.8197268915156748"},
{"codCNH":"170097","name":"CLÍNICA SALUS INFIRMORUM","idRegion":"ES512","phone":"972570208","fax":"972573202","beds":100.0,"type":"GERIATRÍA Y/O LARGA ESTANCIA","notes":"","agreement":"","lat":"42.11477385000001","lon":"2.7609439325545218"},
{"codCNH":"480176","name":"HOSPITAL UNIVERSITARIO DE CRUCES","idRegion":"ES213","phone":"946006000","fax":"946006067","beds":912.0,"type":"GENERAL","notes":"","agreement":"NO","lat":"43.2824977","lon":"-2.9843116994068803"},
{"codCNH":"480182","name":"OSI BARAKALDO-SESTAO","idRegion":"ES213","phone":"944006700","fax":"944006727","beds":128.0,"type":"GENERAL","notes":"","agreement":"NO","lat":"","lon":""},
{"codCNH":"320034","name":"HOSPITAL SANTO CRISTO DE PIÑOR (PSIQUIATRICO)","idRegion":"ES113","phone":"988385500","fax":"988385551","beds":0.0,"type":"GENERAL","notes":"","agreement":"NO","lat":"","lon":""},
{"codCNH":"220054","name":"HOSPITAL DE BARBASTRO","idRegion":"ES241","phone":"974249000","fax":"974249074","beds":172.0,"type":"GENERAL","notes":"","agreement":"NO","lat":"42.035291","lon":"0.1273884"},
{"codCNH":"320126","name":"HOSPITAL DE VALDEORRAS (*)","idRegion":"ES113","phone":"988339000","fax":"988339064","beds":100.0,"type":"GENERAL","notes":"RM compartida (3 unidades móviles RM)","agreement":"NO","lat":"42.34834155","lon":"-6.965998212216205"},
{"codCNH":"110282","name":"HOSPITAL QUIRÓN CAMPO DE GIBRALTAR","idRegion":"","phone":"11379","fax":"956798301","beds":"","type":"PRIVADO NO BENÉFICO","notes":"GENERAL","agreement":"","lat":"36.1851682","lon":"-5.431207982008856"},
{"codCNH":"180093","name":"HOSPITAL DE BAZA","idRegion":"ES614","phone":"958031303","fax":"958031392","beds":117.0,"type":"GENERAL","notes":"","agreement":"NO","lat":"37.4888637","lon":"-2.7709805"},
{"codCNH":"310109","name":"CENTRO HOSPITALARIO BENITO MENNI","idRegion":"ES220","phone":"948452162","fax":"948452478","beds":148.0,"type":"PSIQUIÁTRICO","notes":"","agreement":"SI","lat":"41.62779285","lon":"-4.722582926373626"},
{"codCNH":"290427","name":"HOSPITAL DE ALTA RESOLUCIÓN DE BENALMÁDENA","idRegion":"ES617","phone":"951976000","fax":"951976093","beds":46.0,"type":"GENERAL","notes":"","agreement":"NO","lat":"","lon":""},
{"codCNH":"290405","name":"XANIT HOSPITAL INTERNACIONAL","idRegion":"ES617","phone":"952443119","fax":"952576661","beds":125.0,"type":"GENERAL","notes":"","agreement":"NO","lat":"","lon":""},
{"codCNH":"290393","name":"FUNDACIÓN CUDECA. CENTRO DE CUIDADOS PALIATIVOS","idRegion":"ES617","phone":"952564910","fax":"952564922","beds":15.0,"type":"OTROS MONOGRÁFICOS","notes":"","agreement":"NO","lat":"","lon":""},
{"codCNH":"490065","name":"HOSPITAL DE BENAVENTE","idRegion":"ES419","phone":"980631900","fax":"980630105","beds":0.0,"type":"GENERAL","notes":"","agreement":"SI","lat":"42.003286200000005","lon":"-5.6738595"},
{"codCNH":"30279","name":"CENTRO MÉDICO ACUARIO","idRegion":"ES521","phone":"966476260","fax":"966477115","beds":19.0,"type":"GENERAL","notes":"","agreement":"NO","lat":"","lon":""},
{"codCNH":"30092","name":"HOSPITAL CLÍNICA BENIDORM","idRegion":"ES521","phone":"965853850","fax":"965864345","beds":166.0,"type":"GENERAL","notes":"","agreement":"SI","lat":"38.543056","lon":"-0.12930062356423858"},
{"codCNH":"80692","name":"HOSPITAL COMARCAL DE SANT BERNABÉ","idRegion":"ES511","phone":"938243400","fax":"938243416","beds":150.0,"type":"GENERAL","notes":"","agreement":"","lat":"","lon":""},
{"codCNH":"480195","name":"RED DE SALUD MENTAL DE BIZKAIA (HOSPITAL DE BERMEO)","idRegion":"ES213","phone":"946029000","fax":"946029020","beds":131.0,"type":"PSIQUIÁTRICO","notes":"","agreement":"NO","lat":"","lon":""},
{"codCNH":"460168","name":"HOSPITAL PSIQUIÁTRICO PROVINCIAL","idRegion":"ES523","phone":"961699080","fax":"961699052","beds":80.0,"type":"PSIQUIÁTRICO","notes":"","agreement":"NO","lat":"","lon":""},
{"codCNH":"170101","name":"HOSPITAL DE SANT JAUME","idRegion":"ES512","phone":"972331550","fax":"972333679","beds":23.0,"type":"GERIATRÍA Y/O LARGA ESTANCIA","notes":"","agreement":"NO","lat":"42.1872302","lon":"2.0242654013144588"},
{"codCNH":"170237","name":"HOSPITAL COMARCAL DE BLANES","idRegion":"ES512","phone":"972353264","fax":"972353343","beds":121.0,"type":"GENERAL","notes":"","agreement":"","lat":"","lon":""},
{"codCNH":"281090","name":"HOSPITAL UNIVERSITARIO HM  MONTEPRÍNCIPE","idRegion":"ES300","phone":"917089900","fax":"912110118","beds":170.0,"type":"GENERAL","notes":"","agreement":"SI","lat":"","lon":""},
{"codCNH":"410212","name":"RESIDENCIA DE SALUD MENTAL NUESTRA SEÑORA DEL CARMEN","idRegion":"ES618","phone":"955723391","fax":"954905674","beds":54.0,"type":"PSIQUIÁTRICO","notes":"","agreement":"NO","lat":"","lon":""},
{"codCNH":"410353","name":"HOSPITAL SAN JUAN DE DIOS DEL ALJARAFE","idRegion":"ES618","phone":"955050550","fax":"955059162","beds":200.0,"type":"GENERAL","notes":"","agreement":"SI","lat":"","lon":""},
{"codCNH":"380316","name":"HOSPITAL GENERAL DE LA PALMA","idRegion":"ES707","phone":"922185000","fax":"922185084","beds":198.0,"type":"GENERAL","notes":"","agreement":"NO","lat":"28.6726357","lon":"-17.790392194539308"},
{"codCNH":"281180","name":"HOSPITAL LOS MADROÑOS","idRegion":"ES300","phone":"918163526","fax":"918159728","beds":53.0,"type":"GENERAL","notes":"","agreement":"SI","lat":"36.7727255","lon":"-3.6230212999999996"},
{"codCNH":"70162","name":"HOSPITAL JOAN MARCH","idRegion":"ES532","phone":"871202000","fax":"871202497","beds":106.0,"type":"GERIATRÍA Y/O LARGA ESTANCIA","notes":"","agreement":"SI","lat":"39.67882475","lon":"2.688309455498457"},
{"codCNH":"270095","name":"HOSPITAL PUBLICO DA MARIÑA (*)","idRegion":"ES112","phone":"982589901","fax":"982589908","beds":139.0,"type":"GENERAL","notes":"RM compartida (3 unidades móviles RM)","agreement":"NO","lat":"","lon":""},
{"codCNH":"460404","name":"IMED VALENCIA","idRegion":"ES523","phone":"963003003","fax":"966263079","beds":207.0,"type":"GENERAL","notes":"","agreement":"SI","lat":"38.28806295","lon":"-0.6163641948075638"},
{"codCNH":"140116","name":"HOSPITAL INFANTA MARGARITA","idRegion":"ES613","phone":"957021300","fax":"957021322","beds":232.0,"type":"GENERAL","notes":"","agreement":"NO","lat":"37.4685126","lon":"-4.4246365"},
{"codCNH":"100015","name":"HOSPITAL SAN PEDRO DE ALCÁNTARA","idRegion":"ES432","phone":"927256200","fax":"927256202","beds":0.0,"type":"GENERAL","notes":"","agreement":"NO","lat":"39.46554175","lon":"-6.368229221078828"},
{"codCNH":"100020","name":"HOSPITAL PROVINCIAL NUESTRA SEÑORA DE LA MONTAÑA","idRegion":"ES432","phone":"927256800","fax":"927256816","beds":0.0,"type":"GENERAL","notes":"","agreement":"NO","lat":"","lon":""},
{"codCNH":"260099","name":"FUNDACIÓN HOSPITAL CALAHORRA","idRegion":"ES230","phone":"941151003","fax":"941151103","beds":80.0,"type":"GENERAL","notes":"Fundación Pública","agreement":"SI","lat":"37.875626700000005","lon":"-4.7765896854308405"},
{"codCNH":"260132","name":"CENTRO  SOCIOSANITARIO  DE CONVALECENCIA NUESTRA SEÑORA VIRGEN DEL CARMEN","idRegion":"ES230","phone":"941010000","fax":"941010001","beds":75.0,"type":"GERIATRÍA Y/O LARGA ESTANCIA","notes":"","agreement":"NO","lat":"","lon":""},
{"codCNH":"500153","name":"HOSPITAL ERNEST LLUCH MARTIN","idRegion":"ES243","phone":"976880964","fax":"976880470","beds":122.0,"type":"GENERAL","notes":"","agreement":"NO","lat":"41.3843547","lon":"2.1019053154910337"},
{"codCNH":"81311","name":"RESIDÈNCIA SANTA SUSANNA","idRegion":"ES511","phone":"938654994","fax":"938653619","beds":64.0,"type":"GERIATRÍA Y/O LARGA ESTANCIA","notes":"","agreement":"NO","lat":"","lon":""},
{"codCNH":"80706","name":"HOSPITAL COMARCAL SANT JAUME DE CALELLA","idRegion":"ES511","phone":"937690201","fax":"937694411","beds":233.0,"type":"GENERAL","notes":"","agreement":"","lat":"41.6150516","lon":"2.6566914851021"},
{"codCNH":"170118","name":"HOSPITAL DE CAMPDEVÀNOL","idRegion":"ES512","phone":"972730028","fax":"972730223","beds":80.0,"type":"GENERAL","notes":"","agreement":"","lat":"42.2226507","lon":"2.166929885034212"},
{"codCNH":"330138","name":"HOSPITAL CARMEN Y SEVERO OCHOA","idRegion":"ES120","phone":"985812346","fax":"985812236","beds":103.0,"type":"GENERAL","notes":"","agreement":"NO","lat":"28.9552185","lon":"-13.6497698"},
{"codCNH":"300130","name":"CLÍNICA DOCTOR BERNAL S.L.","idRegion":"ES620","phone":"968705541","fax":"968707914","beds":39.0,"type":"GERIATRÍA Y/O LARGA ESTANCIA","notes":"","agreement":"SI","lat":"","lon":""},
{"codCNH":"300124","name":"HOSPITAL COMARCAL DEL NOROESTE","idRegion":"ES620","phone":"968709100","fax":"968707219","beds":103.0,"type":"GENERAL","notes":"","agreement":"NO","lat":"38.1037408","lon":"-1.8673701029918532"},
{"codCNH":"460333","name":"HOSPITAL NISA AGUAS VIVAS","idRegion":"ES523","phone":"962588800","fax":"962975016","beds":96.0,"type":"GENERAL","notes":"","agreement":"SI","lat":"39.08819490000001","lon":"-0.3550081654888988"},
{"codCNH":"460415","name":"UNIDAD DE DESINTOXICACIÓN HOSPITALARIA","idRegion":"ES523","phone":"962588800","fax":"","beds":16.0,"type":"OTROS MONOGRÁFICOS","notes":"","agreement":"NO","lat":"","lon":""},
{"codCNH":"370074","name":"HOSPITAL LOS MONTALVOS","idRegion":"ES415","phone":"923330163","fax":"923330418","beds":0.0,"type":"GENERAL","notes":"","agreement":"NO","lat":"40.92633695","lon":"-5.740990357695376"},
{"codCNH":"300145","name":"HOSPITAL SANTA MARÍA DEL ROSELL","idRegion":"ES620","phone":"968325000","fax":"968504296","beds":0.0,"type":"GENERAL","notes":"","agreement":"NO","lat":"","lon":""},
{"codCNH":"300161","name":"SANTO Y REAL HOSPITAL DE CARIDAD","idRegion":"ES620","phone":"968510300","fax":"968510300","beds":154.0,"type":"GERIATRÍA Y/O LARGA ESTANCIA","notes":"","agreement":"SI","lat":"37.62743585","lon":"-0.9939015467933054"},
{"codCNH":"300177","name":"HOSPITAL NUESTRA SEÑORA DEL PERPETUO SOCORRO","idRegion":"ES620","phone":"968510500","fax":"968536976","beds":214.0,"type":"MÉDICO-QUIRÚRGICO","notes":"","agreement":"SI","lat":"","lon":""},
{"codCNH":"300340","name":"RESIDENCIA LOS ALMENDROS","idRegion":"ES620","phone":"968168716","fax":"968538054","beds":60.0,"type":"GERIATRÍA Y/O LARGA ESTANCIA","notes":"","agreement":"SI","lat":"37.6287235","lon":"-1.0661091751280591"},
{"codCNH":"300384","name":"HOSPITAL C.M.V. CARIDAD CARTAGENA","idRegion":"ES620","phone":"968506666","fax":"868091856","beds":40.0,"type":"MÉDICO-QUIRÚRGICO","notes":"","agreement":"SI","lat":"","lon":""},
{"codCNH":"300362","name":"HOSPITAL GENERAL UNIVERSITARIO SANTA LUCIA","idRegion":"ES620","phone":"968128600","fax":"","beds":0.0,"type":"GENERAL","notes":"","agreement":"NO","lat":"37.6017877","lon":"-0.9615991572862556"},
{"codCNH":"300373","name":"HOSPITAL PERPETUO SOCORRO ALAMEDA","idRegion":"ES620","phone":"968115055","fax":"968527154","beds":93.0,"type":"GERIATRÍA Y/O LARGA ESTANCIA","notes":"","agreement":"SI","lat":"42.1446274","lon":"-0.407067"},
{"codCNH":"300351","name":"COMPLEJO HOSPITALARIO UNIVERSITARIO DE CARTAGENA","idRegion":"ES620","phone":"968128600","fax":"","beds":691.0,"type":"GENERAL","notes":"","agreement":"NO","lat":"","lon":""},
{"codCNH":"290517","name":"HOSPITAL VALLE DEL GUADALHORCE DE CÁRTAMA","idRegion":"ES617","phone":"951291105","fax":"","beds":0.0,"type":"GENERAL","notes":"","agreement":"NO","lat":"36.721844899999994","lon":"-4.6710606"},
{"codCNH":"410375","name":"HOSPITAL NISA SEVILLA-ALJARAFE","idRegion":"ES618","phone":"954464000","fax":"954161503","beds":148.0,"type":"GENERAL","notes":"","agreement":"NO","lat":"","lon":""},
{"codCNH":"150341","name":"HOSPITAL VIRXE DA XUNQUEIRA (*)","idRegion":"ES111","phone":"981706010","fax":"981706198","beds":74.0,"type":"GENERAL","notes":"RM compartida (3 unidades móviles RM)","agreement":"NO","lat":"42.95368255","lon":"-9.19137737985391"},
{"codCNH":"300196","name":"FUNDACION HOSPITAL REAL PIEDAD","idRegion":"ES620","phone":"968741156","fax":"968741246","beds":40.0,"type":"GERIATRÍA Y/O LARGA ESTANCIA","notes":"","agreement":"SI","lat":"","lon":""},
{"codCNH":"280761","name":"HOSPITAL DE LA FUENFRÍA","idRegion":"ES300","phone":"918520300","fax":"918521567","beds":192.0,"type":"GERIATRÍA Y/O LARGA ESTANCIA","notes":"","agreement":"NO","lat":"40.76061925000001","lon":"-4.074074538461158"},
{"codCNH":"110248","name":"HOSPITAL VIAMED BAHÍA DE CÁDIZ","idRegion":"ES612","phone":"956533333","fax":"956409057","beds":46.0,"type":"GENERAL","notes":"","agreement":"NO","lat":"36.4208846","lon":"-6.150083900000001"},
{"codCNH":"110260","name":"HOSPITAL VIAMED NOVO SANCTI PETRI","idRegion":"ES612","phone":"956495000","fax":"956498415","beds":37.0,"type":"GENERAL","notes":"","agreement":"NO","lat":"","lon":""},
{"codCNH":"280783","name":"CENTRO SAN JUAN DE DIOS","idRegion":"ES300","phone":"918930001","fax":"918932868","beds":339.0,"type":"PSIQUIÁTRICO","notes":"","agreement":"SI","lat":"40.16178410000001","lon":"-3.6143526451763694"},
{"codCNH":"280777","name":"HH. HH. SGDO. C. DE JESÚS. COMPLEJO ASISTENCIAL BENITO MENNI","idRegion":"ES300","phone":"918930150","fax":"918930175","beds":318.0,"type":"PSIQUIÁTRICO","notes":"","agreement":"SI","lat":"","lon":""},
{"codCNH":"300281","name":"HOSPITAL DE LA VEGA LORENZO GUIRAO","idRegion":"ES620","phone":"968775550","fax":"968775563","beds":124.0,"type":"GENERAL","notes":"","agreement":"NO","lat":"38.229532299999995","lon":"-1.4090223094965109"},
{"codCNH":"70244","name":"CLÍNICA JUANEDA MENORCA","idRegion":"ES533","phone":"971480505","fax":"971480506","beds":41.0,"type":"GENERAL","notes":"","agreement":"SI","lat":"40.0048071","lon":"3.8418321000000004"},
{"codCNH":"330143","name":"HOSPITAL COMARCAL DE JARRIO","idRegion":"ES120","phone":"985639300","fax":"985473367","beds":105.0,"type":"GENERAL","notes":"","agreement":"NO","lat":"43.5447646","lon":"-6.746878999999999"},
{"codCNH":"281359","name":"HOSPITAL GENERAL DE VILLALBA","idRegion":"ES300","phone":"910908102","fax":"910908122","beds":209.0,"type":"GENERAL","notes":"","agreement":"NO","lat":"","lon":""},
{"codCNH":"410397","name":"HOSPITAL DE ALTA RESOLUCIÓN SIERRA NORTE","idRegion":"ES618","phone":"955889037","fax":"955889110","beds":8.0,"type":"GENERAL","notes":"","agreement":"NO","lat":"","lon":""},
{"codCNH":"100041","name":"HOSPITAL CIUDAD DE CORIA","idRegion":"ES432","phone":"927149200","fax":"927501898","beds":103.0,"type":"GENERAL","notes":"","agreement":"NO","lat":"39.9910684","lon":"-6.5422559176337005"},
{"codCNH":"81717","name":"CENTRE SOCIOSANITARI SARQUAVITAE SANT JORDI","idRegion":"ES511","phone":"934752690","fax":"934709762","beds":51.0,"type":"GERIATRÍA Y/O LARGA ESTANCIA","notes":"","agreement":"NO","lat":"","lon":""},
{"codCNH":"281269","name":"HOSPITAL UNIVERSITARIO DEL HENARES","idRegion":"ES300","phone":"911912000","fax":"911912288","beds":243.0,"type":"GENERAL","notes":"","agreement":"NO","lat":"","lon":""},
{"codCNH":"280796","name":"HOSPITAL MONOGRÁFICO ASEPEYO DE TRAUMAT. CIRUGÍA Y REHABILITACIÓN","idRegion":"ES300","phone":"916735011","fax":"916276204","beds":133.0,"type":"TRAUMATOLOGÍA Y/O REHABILITACIÓN","notes":"","agreement":"NO","lat":"","lon":""},
{"codCNH":"30351","name":"HOSPITAL LA PEDRERA","idRegion":"ES521","phone":"966467170","fax":"966467287","beds":107.0,"type":"GERIATRÍA Y/O LARGA ESTANCIA","notes":"","agreement":"NO","lat":"38.828024400000004","lon":"0.0962898167350424"},
{"codCNH":"30128","name":"HOSPITAL SAN CARLOS DE DENIA GRUPO HLA","idRegion":"ES521","phone":"965781550","fax":"965789172","beds":31.0,"type":"GENERAL","notes":"","agreement":"NO","lat":"","lon":""},
{"codCNH":"30340","name":"HOSPITAL DE DENIA","idRegion":"ES521","phone":"966429000","fax":"966427986","beds":266.0,"type":"GENERAL","notes":"Concesión Administrativa a Entidad Privada","agreement":"NO","lat":"38.8325999","lon":"0.057965300000000004"},
{"codCNH":"60093","name":"HOSPITAL DON BENITO-VILLANUEVA DE LA SERENA","idRegion":"ES431","phone":"924386800","fax":"924386801","beds":0.0,"type":"GENERAL","notes":"","agreement":"NO","lat":"38.963206","lon":"-5.827535830537998"},
{"codCNH":"60297","name":"HOSPITAL PARQUE VEGAS ALTAS","idRegion":"ES431","phone":"924805050","fax":"924812690","beds":21.0,"type":"GENERAL","notes":"","agreement":"SI","lat":"","lon":""},
{"codCNH":"60253","name":"COMPLEJO H. DON BENITO-VVA DE LA SERENA","idRegion":"ES431","phone":"924382800","fax":"924386801","beds":320.0,"type":"GENERAL","notes":"","agreement":"NO","lat":"","lon":""},
{"codCNH":"410233","name":"HOSPITAL SAN AGUSTÍN","idRegion":"ES618","phone":"955050570","fax":"955050578","beds":93.0,"type":"GENERAL","notes":"","agreement":"NO","lat":"43.551953000000005","lon":"-5.9357555"},
{"codCNH":"410432","name":"CLÍNICA DE SALUD MENTAL MIGUEL DE MAÑARA","idRegion":"ES618","phone":"954127033","fax":"","beds":18.0,"type":"PSIQUIÁTRICO","notes":"","agreement":"NO","lat":"","lon":""},
{"codCNH":"410419","name":"HOSPITAL DE ALTA RESOLUCIÓN DE ÉCIJA","idRegion":"ES618","phone":"","fax":"","beds":38.0,"type":"GENERAL","notes":"","agreement":"NO","lat":"37.532349200000006","lon":"-5.092120534726386"},
{"codCNH":"70201","name":"POLICLÍNICA NUESTRA SEÑORA DEL ROSARIO, S.A.","idRegion":"ES531","phone":"971301916","fax":"971301756","beds":70.0,"type":"GENERAL","notes":"","agreement":"SI","lat":"","lon":""},
{"codCNH":"70197","name":"HOSPITAL RESIDENCIA ASISTIDA CAS SERRES","idRegion":"ES531","phone":"971392960","fax":"971392999","beds":5.0,"type":"OTRA FINALIDAD","notes":"","agreement":"SI","lat":"","lon":""},
{"codCNH":"70184","name":"HOSPITAL CAN MISSES","idRegion":"ES531","phone":"971397000","fax":"971397121","beds":245.0,"type":"GENERAL","notes":"","agreement":"NO","lat":"38.9165292","lon":"1.4185996487433037"},
{"codCNH":"500200","name":"CENTRO SANITARIO CINCO VILLAS","idRegion":"ES243","phone":"976677978","fax":"976677972","beds":32.0,"type":"OTRA FINALIDAD","notes":"","agreement":"NO","lat":"","lon":""},
{"codCNH":"40118","name":"HOSPITAL DE PONIENTE","idRegion":"ES611","phone":"950022568","fax":"950022602","beds":273.0,"type":"GENERAL","notes":"","agreement":"NO","lat":"36.75324005","lon":"-2.803197833170879"},
{"codCNH":"30373","name":"HOSPITAL UNIVERSITARIO VINALOPO","idRegion":"ES521","phone":"966679800","fax":"966632102","beds":214.0,"type":"GENERAL","notes":"Concesión Administrativa a Entidad Privada","agreement":"NO","lat":"","lon":""},
{"codCNH":"30384","name":"HOSPITAL IMED ELCHE","idRegion":"ES521","phone":"966915151","fax":"966651341","beds":98.0,"type":"GENERAL","notes":"","agreement":"SI","lat":"38.28806295","lon":"-0.6163641948075638"},
{"codCNH":"30152","name":"HOSPITAL GENERAL UNIVERSITARIO DE ELCHE","idRegion":"ES521","phone":"966616900","fax":"966616707","beds":492.0,"type":"GENERAL","notes":"","agreement":"NO","lat":"38.25978385000001","lon":"-0.6854274803056539"},
{"codCNH":"30165","name":"HOSPITAL GENERAL UNIVERSITARIO DE ELDA-VIRGEN DE LA SALUD","idRegion":"ES521","phone":"966989000","fax":"965398173","beds":513.0,"type":"GENERAL","notes":"","agreement":"NO","lat":"","lon":""},
{"codCNH":"480305","name":"HOSPITAL QUIRONSALUD BIZKAIA","idRegion":"ES213","phone":"902445595","fax":"944898001","beds":110.0,"type":"GENERAL","notes":"","agreement":"NO","lat":"","lon":""},
{"codCNH":"82167","name":"CLÍNICA DIAGONAL","idRegion":"ES511","phone":"932053213","fax":"932806280","beds":98.0,"type":"GENERAL","notes":"","agreement":"NO","lat":"41.378933700000005","lon":"2.097721342988444"},
{"codCNH":"80728","name":"CLÍNICA NOSTRA SENYORA DE GUADALUPE","idRegion":"ES511","phone":"934702970","fax":"933712306","beds":159.0,"type":"GERIATRÍA Y/O LARGA ESTANCIA","notes":"","agreement":"NO","lat":"","lon":""},
{"codCNH":"81784","name":"CENTRE SOCIOSANITARI D'ESPLUGUES","idRegion":"ES511","phone":"936406350","fax":"936520051","beds":131.0,"type":"GERIATRÍA Y/O LARGA ESTANCIA","notes":"","agreement":"NO","lat":"","lon":""},
{"codCNH":"80713","name":"HOSPITAL DE SANT JOAN DE DÉU.","idRegion":"ES511","phone":"932804000","fax":"932033959","beds":401.0,"type":"MATERNO-INFANTIL","notes":"","agreement":"","lat":"41.60070025","lon":"0.6349327932526239"},
{"codCNH":"310121","name":"HOSPITAL GARCÍA ORCOYEN","idRegion":"ES220","phone":"848435000","fax":"848435003","beds":93.0,"type":"GENERAL","notes":"","agreement":"NO","lat":"42.6833382","lon":"-2.038908569819049"},
{"codCNH":"290382","name":"HOSPITEN ESTEPONA","idRegion":"ES617","phone":"952760600","fax":"952808546","beds":74.0,"type":"GENERAL","notes":"","agreement":"NO","lat":"36.4528445","lon":"-5.084240206546877"},
{"codCNH":"290450","name":"CENYT HOSPITAL","idRegion":"ES617","phone":"952808100","fax":"","beds":10.0,"type":"GENERAL","notes":"","agreement":"NO","lat":"36.42808370000001","lon":"-5.1384924000000005"},
{"codCNH":"150130","name":"COMPLEXO HOSPITALARIO UNIVERSITARIO DE FERROL","idRegion":"ES111","phone":"981334000","fax":"981334015","beds":457.0,"type":"GENERAL","notes":"","agreement":"NO","lat":"","lon":""},
{"codCNH":"150177","name":"HOSPITAL JUAN CARDONA","idRegion":"ES111","phone":"981312500","fax":"981326604","beds":150.0,"type":"GENERAL","notes":"","agreement":"SI","lat":"41.9142758","lon":"1.68133"},
{"codCNH":"150145","name":"HOSPITAL UNIVERSITARIO ARQUITECTO MARCIDE","idRegion":"ES111","phone":"981334000","fax":"981334015","beds":0.0,"type":"GENERAL","notes":"","agreement":"NO","lat":"","lon":""},
{"codCNH":"150183","name":"HOSPITAL NAVAL","idRegion":"ES111","phone":"981339759","fax":"","beds":0.0,"type":"GENERAL","notes":"","agreement":"NO","lat":"","lon":""},
{"codCNH":"170123","name":"HOSPITAL DE FIGUERES","idRegion":"ES512","phone":"972501400","fax":"972670313","beds":168.0,"type":"GENERAL","notes":"","agreement":"","lat":"42.26832159999999","lon":"2.9537614147690485"},
{"codCNH":"170288","name":"CENTRE SOCIOSANITARI BERNAT JAUME","idRegion":"ES512","phone":"972501400","fax":"","beds":121.0,"type":"GERIATRÍA Y/O LARGA ESTANCIA","notes":"","agreement":"NO","lat":"","lon":""},
{"codCNH":"170139","name":"CLÍNICA SANTA CREU","idRegion":"ES512","phone":"972503650","fax":"972503931","beds":35.0,"type":"GENERAL","notes":"","agreement":"NO","lat":"42.2619527","lon":"2.9618175274798686"},
{"codCNH":"70366","name":"HOSPITAL DE FORMENTERA","idRegion":"ES531","phone":"971321212","fax":"971321280","beds":12.0,"type":"GENERAL","notes":"","agreement":"NO","lat":"38.706390899999995","lon":"1.4335265588311945"},
{"codCNH":"220105","name":"CENTRO SANITARIO BAJO CINCA-BAIX CINCA","idRegion":"ES241","phone":"974474545","fax":"974471065","beds":20.0,"type":"OTRA FINALIDAD","notes":"","agreement":"NO","lat":"41.52425085","lon":"0.3405564347291085"},
{"codCNH":"281146","name":"HOSPITAL UNIVERSITARIO DE FUENLABRADA","idRegion":"ES300","phone":"916006000","fax":"916006701","beds":406.0,"type":"GENERAL","notes":"","agreement":"NO","lat":"40.287079799999994","lon":"-3.8159212878634223"},
{"codCNH":"480209","name":"HOSPITAL GALDAKAO-USANSOLO","idRegion":"ES213","phone":"944007000","fax":"944007132","beds":464.0,"type":"GENERAL","notes":"","agreement":"NO","lat":"43.2185696","lon":"-2.818861"},
{"codCNH":"460207","name":"HOSPITAL FRANCESC DE BORJA DE GANDIA","idRegion":"ES523","phone":"962849500","fax":"962849506","beds":285.0,"type":"GENERAL","notes":"","agreement":"NO","lat":"","lon":""},
{"codCNH":"460327","name":"CENTRO MÉDICO GANDIA","idRegion":"ES523","phone":"962874740","fax":"962950215","beds":11.0,"type":"GENERAL","notes":"","agreement":"NO","lat":"38.972941799999994","lon":"-0.17583210000000002"},
{"codCNH":"280989","name":"HOSPITAL UNIVERSITARIO DE GETAFE","idRegion":"ES300","phone":"916839360","fax":"916839748","beds":510.0,"type":"GENERAL","notes":"","agreement":"NO","lat":"40.31262275","lon":"-3.7426444321533783"},
{"codCNH":"330169","name":"HOSPITAL DE LA CRUZ ROJA","idRegion":"ES120","phone":"985195000","fax":"985133195","beds":120.0,"type":"MÉDICO-QUIRÚRGICO","notes":"","agreement":"SI","lat":"36.843913","lon":"-2.452113724152164"},
{"codCNH":"330175","name":"SANATORIO NUESTRA SEÑORA DE COVADONGA","idRegion":"ES120","phone":"985365122","fax":"985130758","beds":24.0,"type":"MÉDICO-QUIRÚRGICO","notes":"","agreement":"NO","lat":"","lon":""},
{"codCNH":"330194","name":"FUNDACIÓN HOSPITAL DE JOVE","idRegion":"ES120","phone":"985320308","fax":"985315710","beds":233.0,"type":"GENERAL","notes":"","agreement":"SI","lat":"","lon":""},
{"codCNH":"330332","name":"CLÍNICA PSIQUIÁTRICA SOMIÓ","idRegion":"ES120","phone":"985133806","fax":"985132278","beds":40.0,"type":"PSIQUIÁTRICO","notes":"","agreement":"NO","lat":"43.5458518","lon":"-5.610151999999999"},
{"codCNH":"330208","name":"HOSPITAL BEGOÑA DE GIJÓN, S.L.","idRegion":"ES120","phone":"985367711","fax":"985365385","beds":41.0,"type":"GENERAL","notes":"","agreement":"NO","lat":"","lon":""},
{"codCNH":"330156","name":"HOSPITAL DE CABUEÑES","idRegion":"ES120","phone":"985185000","fax":"985367169","beds":457.0,"type":"GENERAL","notes":"","agreement":"NO","lat":"43.5248797","lon":"-5.606460980710727"},
{"codCNH":"330354","name":"HOSPITAL GIJÓN","idRegion":"ES120","phone":"985360612","fax":"984840128","beds":32.0,"type":"GERIATRÍA Y/O LARGA ESTANCIA","notes":"","agreement":"NO","lat":"43.5450394","lon":"-5.6626443"},
{"codCNH":"330365","name":"CENTRO TERAPÉUTICO VISTA ALEGRE","idRegion":"ES120","phone":"985363435","fax":"985772566","beds":28.0,"type":"PSIQUIÁTRICO","notes":"","agreement":"NO","lat":"","lon":""},
{"codCNH":"460180","name":"CASA DE REPOSO SAN ONOFRE","idRegion":"ES523","phone":"963638036","fax":"963639972","beds":76.0,"type":"PSIQUIÁTRICO","notes":"","agreement":"NO","lat":"","lon":""},
{"codCNH":"480216","name":"HOSPITAL GORLIZ","idRegion":"ES213","phone":"944006600","fax":"944006627","beds":149.0,"type":"REHABILITACIÓN PSICOFÍSICA","notes":"","agreement":"NO","lat":"43.4139073","lon":"-2.9351773999999997"},
{"codCNH":"81402","name":"MÚTUA DE GRANOLLERS, MÚTUA DE PREVISIÓ SOCIAL A PRIMA FIXA","idRegion":"ES511","phone":"938708099","fax":"938790477","beds":20.0,"type":"GENERAL","notes":"","agreement":"NO","lat":"","lon":""},
{"codCNH":"80734","name":"HOSPITAL GENERAL DE GRANOLLERS.","idRegion":"ES511","phone":"938425000","fax":"938425017","beds":306.0,"type":"GENERAL","notes":"","agreement":"","lat":"","lon":""},
{"codCNH":"81661","name":"BENITO MENNI COMPLEX ASSISTENCIAL EN SALUT MENTAL","idRegion":"ES511","phone":"938425035","fax":"","beds":30.0,"type":"PSIQUIÁTRICO","notes":"","agreement":"NO","lat":"","lon":""},
{"codCNH":"281326","name":"CASTA GUADARRAMA","idRegion":"ES300","phone":"918548328","fax":"918540686","beds":160.0,"type":"PSIQUIÁTRICO","notes":"","agreement":"SI","lat":"","lon":""},
{"codCNH":"280800","name":"HOSPITAL GUADARRAMA","idRegion":"ES300","phone":"918562000","fax":"918562057","beds":144.0,"type":"GERIATRÍA Y/O LARGA ESTANCIA","notes":"","agreement":"NO","lat":"40.6734454","lon":"-4.0893911"},
{"codCNH":"180122","name":"HOSPITAL DE ALTA RESOLUCIÓN DE GUADIX","idRegion":"ES614","phone":"958699153","fax":"958699002","beds":50.0,"type":"GENERAL","notes":"","agreement":"NO","lat":"37.309948950000006","lon":"-3.1455987186081757"},
{"codCNH":"260121","name":"CENTRO SOCIOSANITARIO DE CONVALECENCIA LOS JAZMINES","idRegion":"ES230","phone":"941303650","fax":"941304485","beds":26.0,"type":"GERIATRÍA Y/O LARGA ESTANCIA","notes":"","agreement":"SI","lat":"","lon":""},
{"codCNH":"20096","name":"HOSPITAL DE HELLÍN","idRegion":"ES421","phone":"967309500","fax":"967304611","beds":135.0,"type":"GENERAL","notes":"","agreement":"NO","lat":"38.5043124","lon":"-1.6891100655697582"},
{"codCNH":"200163","name":"ORGANIZACIÓN SANITARIA INTEGRADA BIDASOA (OSI BIDASOA)","idRegion":"ES212","phone":"943007702","fax":"943007701","beds":101.0,"type":"GENERAL","notes":"","agreement":"NO","lat":"","lon":""},
{"codCNH":"81739","name":"CENTRE SOCIOSANITARI DE L'HOSPITALET - CONSORCI SANITARI INTEGRAL","idRegion":"ES511","phone":"934407500","fax":"933334543","beds":123.0,"type":"GERIATRÍA Y/O LARGA ESTANCIA","notes":"","agreement":"NO","lat":"","lon":""},
{"codCNH":"81605","name":"PRYTANIS HOSPITALET CENTRE SOCIOSANITARI","idRegion":"ES511","phone":"932988090","fax":"","beds":104.0,"type":"GERIATRÍA Y/O LARGA ESTANCIA","notes":"","agreement":"NO","lat":"","lon":""},
{"codCNH":"82112","name":"UNITAT POLIVALENT BENITO MENNI EN SALUT MENTAL DE L'HOSPITALET-EL PRAT DE LLOBREGAT","idRegion":"ES511","phone":"936402400","fax":"","beds":35.0,"type":"PSIQUIÁTRICO","notes":"","agreement":"NO","lat":"","lon":""},
{"codCNH":"81461","name":"INSTITUT CATALÀ D'ONCOLOGIA - HOSPITAL DURAN I REYNALS","idRegion":"ES511","phone":"933357011","fax":"932607783","beds":126.0,"type":"ONCOLÓGICO","notes":"","agreement":"","lat":"","lon":""},
{"codCNH":"80771","name":"HOSPITAL GENERAL DE L'HOSPITALET","idRegion":"ES511","phone":"934407500","fax":"933334543","beds":89.0,"type":"GENERAL","notes":"","agreement":"","lat":"41.3741708","lon":"2.1069438559651767"},
{"codCNH":"80752","name":"HOSPITAL UNIVERSITARI DE BELLVITGE","idRegion":"ES511","phone":"933357011","fax":"932607533","beds":1022.0,"type":"GENERAL","notes":"","agreement":"","lat":"41.34536095","lon":"2.104785907668183"},
{"codCNH":"80543","name":"HESTIA DURAN I REYNALS","idRegion":"ES511","phone":"934170400","fax":"934183356","beds":428.0,"type":"GERIATRÍA Y/O LARGA ESTANCIA","notes":"","agreement":"NO","lat":"","lon":""},
{"codCNH":"40084","name":"HOSPITAL LA INMACULADA","idRegion":"ES611","phone":"950029176","fax":"950451040","beds":184.0,"type":"GENERAL","notes":"","agreement":"NO","lat":"37.4013429","lon":"-1.9418865490704171"},
{"codCNH":"380197","name":"HOSPITAL DE LA SANTÍSIMA TRINIDAD","idRegion":"ES709","phone":"922604510","fax":"922321456","beds":99.0,"type":"GERIATRÍA Y/O LARGA ESTANCIA","notes":"","agreement":"SI","lat":"28.3872688","lon":"-16.5260112"},
{"codCNH":"380337","name":"HOSPITAL DEL NORTE","idRegion":"","phone":"822171471","fax":"922653808","beds":0.0,"type":"GERIATRÍA Y/O LARGA ESTANCIA","notes":"","agreement":"NO","lat":"","lon":""},
{"codCNH":"80787","name":"FUNDACIÓ SANITÀRIA SANT JOSEP","idRegion":"ES511","phone":"938032650","fax":"938051586","beds":145.0,"type":"GERIATRÍA Y/O LARGA ESTANCIA","notes":"","agreement":"NO","lat":"","lon":""},
{"codCNH":"81885","name":"HOSPITAL D'IGUALADA","idRegion":"ES511","phone":"938075500","fax":"938036915","beds":280.0,"type":"GENERAL","notes":"","agreement":"","lat":"41.4905905","lon":"1.7076074120503757"},
{"codCNH":"70377","name":"HOSPITAL COMARCAL D'INCA","idRegion":"ES532","phone":"971888514","fax":"971888584","beds":165.0,"type":"GENERAL","notes":"","agreement":"NO","lat":"39.71593935","lon":"2.9220721596410035"},
{"codCNH":"220089","name":"HOSPITAL DE JACA.SALUD","idRegion":"ES241","phone":"974355331","fax":"974364142","beds":50.0,"type":"GENERAL","notes":"","agreement":"NO","lat":"","lon":""},
{"codCNH":"110271","name":"CLÍNICA SERMAN - INSTITUTO MÉDICO","idRegion":"ES612","phone":"956301211","fax":"956317759","beds":41.0,"type":"GENERAL","notes":"","agreement":"SI","lat":"","lon":""},
{"codCNH":"110125","name":"HOSPITAL SAN JUAN GRANDE","idRegion":"ES612","phone":"956357300","fax":"956184802","beds":143.0,"type":"GENERAL","notes":"","agreement":"SI","lat":"36.69151574999999","lon":"-6.149739848779506"},
{"codCNH":"110239","name":"HOSPITAL JEREZ PUERTA DEL SUR","idRegion":"ES612","phone":"956357100","fax":"956357170","beds":98.0,"type":"GENERAL","notes":"","agreement":"NO","lat":"36.66943055","lon":"-6.13978982513441"},
{"codCNH":"110110","name":"HOSPITAL UNIVERSITARIO DE JEREZ DE LA FRONTERA","idRegion":"ES612","phone":"956032075","fax":"956032239","beds":498.0,"type":"GENERAL","notes":"","agreement":"NO","lat":"","lon":""},
{"codCNH":"110103","name":"CLÍNICA  LOS ÁLAMOS","idRegion":"ES612","phone":"956182244","fax":"956308811","beds":15.0,"type":"GENERAL","notes":"","agreement":"NO","lat":"36.70414005","lon":"-6.130589137056326"},
{"codCNH":"250221","name":"REEIXIR","idRegion":"ES513","phone":"973269543","fax":"","beds":44.0,"type":"PSIQUIÁTRICO","notes":"","agreement":"NO","lat":"","lon":""},
{"codCNH":"10088","name":"HOSPITAL DE LEZA","idRegion":"ES211","phone":"945006900","fax":"945006901","beds":63.0,"type":"GENERAL","notes":"","agreement":"NO","lat":"42.57573050000001","lon":"-2.638496358062934"},
{"codCNH":"330254","name":"FUNDACIÓN SANATORIO ADARO","idRegion":"ES120","phone":"985681754","fax":"985692151","beds":138.0,"type":"GERIATRÍA Y/O LARGA ESTANCIA","notes":"","agreement":"SI","lat":"43.292263","lon":"-5.675017829314496"},
{"codCNH":"330241","name":"HOSPITAL VALLE DEL NALÓN","idRegion":"ES120","phone":"985652000","fax":"985652006","beds":223.0,"type":"GENERAL","notes":"","agreement":"NO","lat":"","lon":""},
{"codCNH":"260109","name":"CLÍNICA LOS MANZANOS","idRegion":"ES230","phone":"941499490","fax":"941499491","beds":52.0,"type":"MÉDICO-QUIRÚRGICO","notes":"","agreement":"SI","lat":"42.43762485","lon":"-2.448216315871017"},
{"codCNH":"390134","name":"HOSPITAL COMARCAL DE LAREDO","idRegion":"ES130","phone":"942638500","fax":"942607876","beds":131.0,"type":"GENERAL","notes":"","agreement":"NO","lat":"43.41384340000001","lon":"-3.441714544189232"},
{"codCNH":"410454","name":"HOSPITAL DE ALTA RESOLUCIÓN DE LEBRIJA","idRegion":"ES618","phone":"","fax":"","beds":22.0,"type":"GENERAL","notes":"","agreement":"NO","lat":"36.91037325","lon":"-6.072711421288671"},
{"codCNH":"280838","name":"HOSPITAL UNIVERSITARIO SEVERO OCHOA","idRegion":"ES300","phone":"914818000","fax":"916940717","beds":386.0,"type":"GENERAL","notes":"","agreement":"NO","lat":"","lon":""},
{"codCNH":"280843","name":"INSTITUTO PSIQUIÁTRICO SERVICIOS DE SALUD MENTAL JOSÉ GERMAIN-1 LUNA","idRegion":"ES300","phone":"915866767","fax":"915866543","beds":0.0,"type":"PSIQUIÁTRICO","notes":"","agreement":"NO","lat":"","lon":""},
{"codCNH":"281427","name":"INSTITUTO PSIQUIÁTRICO SERVICIOS DE SALUD MENTAL JOSÉ GERMAIN","idRegion":"ES300","phone":"915866767","fax":"915866543","beds":178.0,"type":"PSIQUIÁTRICO","notes":"","agreement":"NO","lat":"","lon":""},
{"codCNH":"281438","name":"INSTITUTO PSIQUIÁTRICO SERVICIOS DE SALUD MENTAL JOSÉ GERMAIN-2 ARAGÓN","idRegion":"ES300","phone":"915866767","fax":"915866543","beds":0.0,"type":"PSIQUIÁTRICO","notes":"","agreement":"NO","lat":"","lon":""},
{"codCNH":"210148","name":"HOSPITAL VIRGEN DE LA BELLA","idRegion":"ES615","phone":"649902722","fax":"959012125","beds":61.0,"type":"GENERAL","notes":"","agreement":"NO","lat":"37.26043","lon":"-7.194206231089932"},
{"codCNH":"230079","name":"HOSPITAL SAN AGUSTÍN","idRegion":"ES616","phone":"953024200","fax":"953024315","beds":204.0,"type":"GENERAL","notes":"","agreement":"NO","lat":"43.551953000000005","lon":"-5.9357555"},
{"codCNH":"110316","name":"HOSPITAL DE LA LÍNEA DE LA CONCEPCIÓN","idRegion":"ES612","phone":"956026500","fax":"956026563","beds":243.0,"type":"GENERAL","notes":"","agreement":"NO","lat":"36.167789899999995","lon":"-5.348239599999999"},
{"codCNH":"330321","name":"INSTITUTO SALUD MENTAL PÉREZ-ESPINOSA ORIA, S.L.","idRegion":"ES120","phone":"985771677","fax":"985772566","beds":42.0,"type":"PSIQUIÁTRICO","notes":"","agreement":"NO","lat":"","lon":""},
{"codCNH":"250232","name":"HOSPITAL SANT JOAN DE DÉU LLEIDA","idRegion":"ES513","phone":"973740010","fax":"","beds":130.0,"type":"PSIQUIÁTRICO","notes":"","agreement":"NO","lat":"41.6005176","lon":"0.6351647"},
{"codCNH":"60114","name":"HOSPITAL GENERAL DE LLERENA","idRegion":"ES431","phone":"924877000","fax":"924870926","beds":0.0,"type":"GENERAL","notes":"","agreement":"NO","lat":"38.2427771","lon":"-6.0131725"},
{"codCNH":"60219","name":"COMPLEJO HOSPITALARIO LLERENA-ZAFRA","idRegion":"ES431","phone":"924877000","fax":"924870926","beds":227.0,"type":"GENERAL","notes":"","agreement":"NO","lat":"","lon":""},
{"codCNH":"460392","name":"HOSPITAL DE LLÍRIA","idRegion":"ES523","phone":"962718800","fax":"","beds":90.0,"type":"GENERAL","notes":"","agreement":"NO","lat":"39.6411595","lon":"-0.6191600361769081"},
{"codCNH":"170160","name":"HOSPITAL SOCIOSANITARI DE LLORET DE MAR","idRegion":"ES512","phone":"972364736","fax":"972372602","beds":63.0,"type":"GERIATRÍA Y/O LARGA ESTANCIA","notes":"","agreement":"NO","lat":"","lon":""},
{"codCNH":"70423","name":"HOSPITAL CLINIC BALEAR","idRegion":"ES532","phone":"971443030","fax":"971440431","beds":34.0,"type":"GENERAL","notes":"","agreement":"NO","lat":"39.49051470000001","lon":"2.7404978245327083"},
{"codCNH":"180133","name":"HOSPITAL DE ALTA RESOLUCIÓN DE LOJA","idRegion":"ES614","phone":"958338100","fax":"958338197","beds":22.0,"type":"GENERAL","notes":"","agreement":"NO","lat":"","lon":""},
{"codCNH":"300217","name":"HOSPITAL VIRGEN DEL ALCÁZAR DE LORCA","idRegion":"ES620","phone":"968468600","fax":"968468612","beds":175.0,"type":"GERIATRÍA Y/O LARGA ESTANCIA","notes":"","agreement":"SI","lat":"37.66962305","lon":"-1.6959193093937857"},
{"codCNH":"300256","name":"HOSPITAL RAFAEL MÉNDEZ","idRegion":"ES620","phone":"968445500","fax":"968442421","beds":287.0,"type":"GENERAL","notes":"","agreement":"NO","lat":"","lon":""},
{"codCNH":"280856","name":"FREMAP HOSPITAL Y CENTRO DE REHABILITACIÓN DE MAJADAHONDA","idRegion":"ES300","phone":"916265642","fax":"916392607","beds":116.0,"type":"TRAUMATOLOGÍA Y/O REHABILITACIÓN","notes":"","agreement":"NO","lat":"","lon":""},
{"codCNH":"281315","name":"HOSPITAL UNIVERSITARIO PUERTA DE HIERRO MAJADAHONDA","idRegion":"ES300","phone":"911916000","fax":"913734661","beds":613.0,"type":"GENERAL","notes":"","agreement":"NO","lat":"40.45025765","lon":"-3.8737240820829295"},
{"codCNH":"70309","name":"HOSPITAL MANACOR","idRegion":"ES532","phone":"971847000","fax":"971847010","beds":224.0,"type":"GENERAL","notes":"","agreement":"NO","lat":"39.5780492","lon":"3.2085141"},
{"codCNH":"70412","name":"HOSPITAL DE LLEVANT","idRegion":"ES532","phone":"971822400","fax":"971822020","beds":70.0,"type":"GENERAL","notes":"","agreement":"NO","lat":"39.5452354","lon":"3.3297905718902605"},
{"codCNH":"460370","name":"HOSPITAL DE MANISES","idRegion":"ES523","phone":"961845000","fax":"961849182","beds":354.0,"type":"GENERAL","notes":"Concesión Administrativa a Entidad Privada","agreement":"NO","lat":"39.485581599999996","lon":"-0.4529130852357861"},
{"codCNH":"80826","name":"HOSPITAL  DE  SANT  JAUME","idRegion":"ES511","phone":"938506565","fax":"938507196","beds":90.0,"type":"GERIATRÍA Y/O LARGA ESTANCIA","notes":"","agreement":"NO","lat":"42.1872302","lon":"2.0242654013144588"},
{"codCNH":"80863","name":"HOSPITAL DE SANT JOAN DE DÉU (MANRESA)","idRegion":"ES511","phone":"938732550","fax":"938724931","beds":280.0,"type":"GENERAL","notes":"","agreement":"","lat":"","lon":""},
{"codCNH":"80832","name":"CLÍNICA SANT JOSEP","idRegion":"ES511","phone":"938744050","fax":"938741254","beds":95.0,"type":"GENERAL","notes":"","agreement":"NO","lat":"41.72265295","lon":"1.8323943362254929"},
{"codCNH":"80850","name":"CENTRE HOSPITALARI.","idRegion":"ES511","phone":"938732550","fax":"938741004","beds":309.0,"type":"GENERAL","notes":"","agreement":"","lat":"41.735448999999996","lon":"1.8251179"},
{"codCNH":"80879","name":"HOSPITAL DE SANT ANDREU","idRegion":"ES511","phone":"938743312","fax":"938731504","beds":191.0,"type":"GERIATRÍA Y/O LARGA ESTANCIA","notes":"","agreement":"NO","lat":"41.43662929999999","lon":"2.1911382"},
{"codCNH":"130065","name":"HOSPITAL VIRGEN DE ALTAGRACIA","idRegion":"ES422","phone":"926646000","fax":"926614408","beds":118.0,"type":"GENERAL","notes":"","agreement":"NO","lat":"38.9992939","lon":"-3.3617246907632325"},
{"codCNH":"70388","name":"HOSPITAL MATEU ORFILA","idRegion":"ES533","phone":"971487000","fax":"971487011","beds":142.0,"type":"GENERAL","notes":"","agreement":"NO","lat":"39.8827967","lon":"4.2527682"},
{"codCNH":"70295","name":"CLINICA JUANEDA MAHON","idRegion":"ES533","phone":"971351115","fax":"971369163","beds":18.0,"type":"GENERAL","notes":"","agreement":"NO","lat":"39.8864376","lon":"4.2557953"},
{"codCNH":"290472","name":"CENTRO DE REPRODUCCIÓN ASISTIDA DE MARBELLA (CERAM)","idRegion":"ES617","phone":"952829035","fax":"952773256","beds":22.0,"type":"GENERAL","notes":"","agreement":"NO","lat":"","lon":""},
{"codCNH":"290494","name":"HELICÓPTEROS SANITARIOS HOSPITAL","idRegion":"ES617","phone":"952816767","fax":"","beds":10.0,"type":"GENERAL","notes":"","agreement":"NO","lat":"","lon":""},
{"codCNH":"290461","name":"CLÍNICA OCHOA","idRegion":"ES617","phone":"952861400","fax":"952860888","beds":12.0,"type":"GENERAL","notes":"","agreement":"NO","lat":"","lon":""},
{"codCNH":"290287","name":"HOSPITAL COSTA DEL SOL","idRegion":"ES617","phone":"952828250","fax":"952823219","beds":408.0,"type":"GENERAL","notes":"Empresa Pública","agreement":"NO","lat":"","lon":""},
{"codCNH":"290359","name":"HC MARBELLA INTERNATIONAL HOSPITAL","idRegion":"ES617","phone":"952908628","fax":"952908749","beds":12.0,"type":"GENERAL","notes":"","agreement":"NO","lat":"36.485409000000004","lon":"-4.9705322999999995"},
{"codCNH":"290173","name":"HOSPITAL QUIRONSALUD MARBELLA","idRegion":"ES617","phone":"952774200","fax":"951913041","beds":75.0,"type":"GENERAL","notes":"","agreement":"NO","lat":"36.50859215","lon":"-4.874189481982891"},
{"codCNH":"80885","name":"GERMANES HOSPITALÀRIES. HOSPITAL SAGRAT COR","idRegion":"ES511","phone":"937752200","fax":"937751994","beds":488.0,"type":"PSIQUIÁTRICO","notes":"","agreement":"NO","lat":"","lon":""},
{"codCNH":"80898","name":"FUNDACIÓ HOSPITAL SANT JOAN DE DÉU","idRegion":"ES511","phone":"937742020","fax":"937753706","beds":112.0,"type":"GENERAL","notes":"","agreement":"","lat":"","lon":""},
{"codCNH":"81997","name":"CQM CLÍNIC MARESME, SL","idRegion":"ES511","phone":"937556219","fax":"937904496","beds":10.0,"type":"GENERAL","notes":"","agreement":"NO","lat":"","lon":""},
{"codCNH":"81580","name":"ANTIC HOSPITAL DE SANT JAUME I SANTA MAGDALENA","idRegion":"ES511","phone":"937582800","fax":"937582813","beds":70.0,"type":"GERIATRÍA Y/O LARGA ESTANCIA","notes":"","agreement":"NO","lat":"","lon":""},
{"codCNH":"81326","name":"HOSPITAL DE MATARÓ","idRegion":"ES511","phone":"937417700","fax":"937417733","beds":402.0,"type":"GENERAL","notes":"","agreement":"","lat":"41.5557719","lon":"2.4303600745236045"},
{"codCNH":"81213","name":"HESTIA MARESME","idRegion":"ES511","phone":"931165279","fax":"937577251","beds":125.0,"type":"GERIATRÍA Y/O LARGA ESTANCIA","notes":"","agreement":"NO","lat":"","lon":""},
{"codCNH":"470091","name":"HOSPITAL MEDINA DEL CAMPO","idRegion":"ES418","phone":"983838000","fax":"983838007","beds":119.0,"type":"GENERAL","notes":"","agreement":"NO","lat":"41.308549600000006","lon":"-4.915025599999999"},
{"codCNH":"200258","name":"HOSPITAL DE MENDARO","idRegion":"ES212","phone":"943032800","fax":"943032888","beds":119.0,"type":"GENERAL","notes":"","agreement":"NO","lat":"43.252500399999995","lon":"-2.3858392000000004"},
{"codCNH":"60129","name":"HOSPITAL DE MÉRIDA","idRegion":"ES431","phone":"924381000","fax":"924381012","beds":0.0,"type":"GENERAL","notes":"","agreement":"NO","lat":"38.912235100000004","lon":"-6.3635321"},
{"codCNH":"60275","name":"CASAVERDE. CENTRO DE REHABILITACIÓN NEUROLÓGICO DE EXTREMADURA","idRegion":"ES431","phone":"924380330","fax":"924577213","beds":100.0,"type":"REHABILITACIÓN PSICOFÍSICA","notes":"","agreement":"SI","lat":"","lon":""},
{"codCNH":"60264","name":"COMPLEJO HOSPITALARIO DEL ÁREA DE SALUD DE MÉRIDA","idRegion":"ES431","phone":"924381000","fax":"924381012","beds":381.0,"type":"GENERAL","notes":"","agreement":"NO","lat":"","lon":""},
{"codCNH":"60135","name":"CENTRO SOCIOSANITARIO DE MÉRIDA","idRegion":"ES431","phone":"924388081","fax":"924388083","beds":270.0,"type":"PSIQUIÁTRICO","notes":"D. Funcional: SEPAD (Ente Público adscrito a la Consejería de Sanidad y Dependencia).","agreement":"NO","lat":"","lon":""},
{"codCNH":"330267","name":"HOSPITAL V. ÁLVAREZ BUYLLA","idRegion":"ES120","phone":"985458500","fax":"985458509","beds":176.0,"type":"GENERAL","notes":"","agreement":"NO","lat":"43.226445","lon":"-5.781431708362348"},
{"codCNH":"210097","name":"HOSPITAL DE RIOTINTO","idRegion":"ES615","phone":"959025295","fax":"959025297","beds":118.0,"type":"GENERAL","notes":"","agreement":"NO","lat":"37.69335615","lon":"-6.5978415483963015"},
{"codCNH":"90098","name":"HOSPITAL SANTIAGO APÓSTOL","idRegion":"ES412","phone":"947349000","fax":"947349014","beds":114.0,"type":"GENERAL","notes":"","agreement":"NO","lat":"40.07658065","lon":"-2.1374422855056308"},
{"codCNH":"460381","name":"HOSPITAL DE CRÓNICOS DE MISLATA (ANTIGUO HOSPITAL MILITAR DE VALENCIA)","idRegion":"ES523","phone":"963874693","fax":"963874699","beds":115.0,"type":"GERIATRÍA Y/O LARGA ESTANCIA","notes":"Concesión Administrativa a Entidad Privada","agreement":"NO","lat":"","lon":""},
{"codCNH":"300294","name":"HOSPITAL DE MOLINA","idRegion":"ES620","phone":"968644030","fax":"968644272","beds":83.0,"type":"MÉDICO-QUIRÚRGICO","notes":"","agreement":"SI","lat":"38.059800200000005","lon":"-1.2148774033825962"},
{"codCNH":"80930","name":"CENTRE MÈDIC MOLINS, SL","idRegion":"ES511","phone":"936680004","fax":"937721570","beds":177.0,"type":"GERIATRÍA Y/O LARGA ESTANCIA","notes":"","agreement":"NO","lat":"","lon":""},
{"codCNH":"81841","name":"PARC SANITARI SANT JOAN DE DÉU - TIL·LERS","idRegion":"ES511","phone":"935705289","fax":"935702648","beds":10.0,"type":"PSIQUIÁTRICO","notes":"","agreement":"NO","lat":"","lon":""},
{"codCNH":"82178","name":"HOSPITAL SOCIOSANITARI DE MOLLET","idRegion":"ES511","phone":"935760300","fax":"935760320","beds":109.0,"type":"GERIATRÍA Y/O LARGA ESTANCIA","notes":"","agreement":"NO","lat":"41.5411558","lon":"2.2110180592381794"},
{"codCNH":"80945","name":"HOSPITAL DE MOLLET","idRegion":"ES511","phone":"935760300","fax":"935760306","beds":164.0,"type":"GENERAL","notes":"","agreement":"","lat":"","lon":""},
{"codCNH":"270109","name":"HOSPITAL DE MONFORTE (*)","idRegion":"ES112","phone":"982417900","fax":"982404006","beds":140.0,"type":"GENERAL","notes":"RM compartida (3 unidades móviles RM)","agreement":"NO","lat":"","lon":""},
{"codCNH":"140195","name":"HOSPITAL DE MONTILLA","idRegion":"ES613","phone":"957022600","fax":"957022606","beds":92.0,"type":"GENERAL","notes":"","agreement":"NO","lat":"37.5712787","lon":"-4.640150789467329"},
{"codCNH":"430081","name":"HOSPITAL COMARCAL MÓRA D'EBRE","idRegion":"ES514","phone":"977401863","fax":"977401214","beds":120.0,"type":"GENERAL","notes":"","agreement":"","lat":"","lon":""},
{"codCNH":"410248","name":"HOSPITAL DE ALTA RESOLUCIÓN DE MORÓN DE LA FRONTERA","idRegion":"ES618","phone":"954851008","fax":"954852083","beds":12.0,"type":"GENERAL","notes":"","agreement":"NO","lat":"","lon":""},
{"codCNH":"281360","name":"HM UNIVERSITARIO PUERTA DEL SUR","idRegion":"ES300","phone":"912673100","fax":"912673193","beds":182.0,"type":"GENERAL","notes":"","agreement":"SI","lat":"","lon":""},
{"codCNH":"280894","name":"HOSPITAL UNIVERSITARIO DE MÓSTOLES","idRegion":"ES300","phone":"916648600","fax":"916471917","beds":332.0,"type":"GENERAL","notes":"","agreement":"NO","lat":"40.31575505","lon":"-3.8774710524495086"},
{"codCNH":"281348","name":"HOSPITAL REY JUAN CARLOS","idRegion":"ES300","phone":"914816225","fax":"914816216","beds":364.0,"type":"GENERAL","notes":"","agreement":"NO","lat":"40.5572686","lon":"-5.6718942000000006"},
{"codCNH":"180107","name":"HOSPITAL SANTA ANA","idRegion":"ES614","phone":"958038200","fax":"958038201","beds":187.0,"type":"GENERAL","notes":"","agreement":"NO","lat":"","lon":""},
{"codCNH":"70260","name":"HOSPITAL GENERAL DE MURO","idRegion":"ES533","phone":"971891900","fax":"971892495","beds":85.0,"type":"GENERAL","notes":"","agreement":"SI","lat":"","lon":""},
{"codCNH":"30362","name":"CENTRO DE REHABILITACIÓN NEUROLÓGICA CASAVERDE","idRegion":"ES521","phone":"965950711","fax":"965950865","beds":40.0,"type":"REHABILITACIÓN PSICOFÍSICA","notes":"","agreement":"NO","lat":"","lon":""},
{"codCNH":"281382","name":"HOSPITAL CASAVERDE DE MADRID","idRegion":"ES300","phone":"911609910","fax":"","beds":100.0,"type":"REHABILITACIÓN PSICOFÍSICA","notes":"","agreement":"NO","lat":"","lon":""},
{"codCNH":"100054","name":"HOSPITAL CAMPO ARAÑUELO","idRegion":"ES432","phone":"927548900","fax":"927544808","beds":102.0,"type":"GENERAL","notes":"","agreement":"NO","lat":"39.88807645","lon":"-5.561008099208527"},
{"codCNH":"290483","name":"CLÍNICA RINCÓN","idRegion":"ES617","phone":"952965126","fax":"952526102","beds":4.0,"type":"GENERAL","notes":"","agreement":"NO","lat":"36.7471576","lon":"-3.8806526"},
{"codCNH":"250181","name":"CASTELL D'OLIANA RESIDENCIAL,S.L","idRegion":"ES513","phone":"973463030","fax":"973463131","beds":20.0,"type":"PSIQUIÁTRICO","notes":"","agreement":"NO","lat":"","lon":""},
{"codCNH":"170176","name":"HOSPITAL D'OLOT I COMARCAL DE LA GARROTXA","idRegion":"ES512","phone":"972261800","fax":"972269703","beds":137.0,"type":"GENERAL","notes":"","agreement":"","lat":"42.187462200000006","lon":"2.4675162"},
{"codCNH":"460235","name":"HOSPITAL GENERAL DE ONTINYENT","idRegion":"ES523","phone":"962989200","fax":"962989250","beds":56.0,"type":"GENERAL","notes":"","agreement":"NO","lat":"38.82010695","lon":"-0.6031734317191494"},
{"codCNH":"30211","name":"HOSPITAL VEGA BAJA DE ORIHUELA","idRegion":"ES521","phone":"966749000","fax":"966749069","beds":361.0,"type":"GENERAL","notes":"","agreement":"NO","lat":"38.08822855","lon":"-0.8538951886107521"},
{"codCNH":"380201","name":"CLÍNICA VIDA","idRegion":"ES709","phone":"922330550","fax":"922331862","beds":31.0,"type":"GENERAL","notes":"","agreement":"NO","lat":"","lon":""},
{"codCNH":"410251","name":"HOSPITAL LA MERCED","idRegion":"ES618","phone":"955077200","fax":"955077217","beds":225.0,"type":"GENERAL","notes":"","agreement":"NO","lat":"","lon":""},
{"codCNH":"170195","name":"HOSPITAL DE PALAMÓS","idRegion":"ES512","phone":"972600160","fax":"972602437","beds":136.0,"type":"GENERAL","notes":"","agreement":"","lat":"41.852807899999995","lon":"3.13192845170468"},
{"codCNH":"170312","name":"CENTRE PALAMÓS GENT GRAN","idRegion":"ES512","phone":"972600160","fax":"","beds":100.0,"type":"GERIATRÍA Y/O LARGA ESTANCIA","notes":"","agreement":"NO","lat":"41.852410299999995","lon":"3.1232055"},
{"codCNH":"400058","name":"UNIDAD DE REHABILITACIÓN PSIQUIÁTRICA NTRA. SRA. DE LA FUENCISLA","idRegion":"ES416","phone":"921421800","fax":"921420080","beds":56.0,"type":"PSIQUIÁTRICO","notes":"","agreement":"SI","lat":"","lon":""},
{"codCNH":"281304","name":"HOSPITAL UNIVERSITARIO INFANTA CRISTINA","idRegion":"ES300","phone":"911913500","fax":"911913960","beds":188.0,"type":"GENERAL","notes":"","agreement":"NO","lat":"","lon":""},
{"codCNH":"330306","name":"HOSPITAL DEL ORIENTE DE ASTURIAS FRANCISCO GRANDE COVIÁN","idRegion":"ES120","phone":"985840032","fax":"985841550","beds":90.0,"type":"GENERAL","notes":"","agreement":"NO","lat":"","lon":""},
{"codCNH":"140229","name":"HOSPITAL DE ALTA RESOLUCIÓN VALLE DEL GUADIATO","idRegion":"ES613","phone":"957579100","fax":"957579150","beds":17.0,"type":"GENERAL","notes":"","agreement":"NO","lat":"38.308629","lon":"-5.27073139019312"},
{"codCNH":"150308","name":"SANATORIO LA ROBLEDA","idRegion":"ES111","phone":"981585811","fax":"981585860","beds":96.0,"type":"PSIQUIÁTRICO","notes":"","agreement":"SI","lat":"42.92598220000001","lon":"-8.398401498657394"},
{"codCNH":"100067","name":"HOSPITAL VIRGEN DEL PUERTO","idRegion":"ES432","phone":"927428300","fax":"927428324","beds":250.0,"type":"GENERAL","notes":"","agreement":"NO","lat":"40.0490084","lon":"-6.0854108"},
{"codCNH":"100073","name":"HOSPITAL SOCIOSANITARIO DE PLASENCIA","idRegion":"ES432","phone":"927428800","fax":"927421836","beds":330.0,"type":"PSIQUIÁTRICO","notes":"","agreement":"NO","lat":"","lon":""},
{"codCNH":"100106","name":"CLÍNICA SOQUIMEX","idRegion":"ES432","phone":"927418484","fax":"927424059","beds":20.0,"type":"GENERAL","notes":"","agreement":"NO","lat":"","lon":""},
{"codCNH":"360101","name":"INSTITUTO DE NEURO-REHABILITACION QUIRONSALUD PONTEVEDRA","idRegion":"ES114","phone":"986856800","fax":"986864122","beds":30.0,"type":"OTROS MONOGRÁFICOS","notes":"","agreement":"SI","lat":"","lon":""},
{"codCNH":"240212","name":"CLÍNICA PONFERRADA","idRegion":"ES413","phone":"987423732","fax":"987429102","beds":46.0,"type":"GENERAL","notes":"","agreement":"SI","lat":"42.55322035","lon":"-6.611720531067165"},
{"codCNH":"240140","name":"HOSPITAL DE LA REINA","idRegion":"ES413","phone":"987409109","fax":"987411945","beds":72.0,"type":"GENERAL","notes":"","agreement":"SI","lat":"42.54171945","lon":"-6.593374974886434"},
{"codCNH":"240135","name":"HOSPITAL EL BIERZO","idRegion":"ES413","phone":"987455200","fax":"987455300","beds":408.0,"type":"GENERAL","notes":"","agreement":"NO","lat":"42.57232105","lon":"-6.643670075045847"},
{"codCNH":"140121","name":"HOSPITAL VALLE DE LOS PEDROCHES","idRegion":"ES613","phone":"957026306","fax":"957026427","beds":124.0,"type":"GENERAL","notes":"","agreement":"NO","lat":"38.586423499999995","lon":"-4.724792"},
{"codCNH":"281203","name":"HOSPITAL QUIRÓNSALUD MADRID","idRegion":"ES300","phone":"902151016","fax":"915183232","beds":239.0,"type":"GENERAL","notes":"","agreement":"SI","lat":"40.5997077","lon":"-3.7134805"},
{"codCNH":"230162","name":"HOSPITAL DE ALTA RESOLUCIÓN SIERRA DE SEGURA","idRegion":"ES616","phone":"953499012","fax":"953499162","beds":24.0,"type":"GENERAL","notes":"","agreement":"NO","lat":"38.3602509","lon":"-2.7873429821500753"},
{"codCNH":"140218","name":"HOSPITAL DE ALTA RESOLUCIÓN DE PUENTE GENIL","idRegion":"ES613","phone":"957615000","fax":"957615060","beds":24.0,"type":"GENERAL","notes":"","agreement":"NO","lat":"","lon":""},
{"codCNH":"380223","name":"HOSPITAL BELLEVUE","idRegion":"ES709","phone":"922368822","fax":"922370312","beds":195.0,"type":"GENERAL","notes":"","agreement":"SI","lat":"","lon":""},
{"codCNH":"110162","name":"HOSPITAL GENERAL SANTA MARÍA DEL PUERTO","idRegion":"ES612","phone":"956017000","fax":"956017084","beds":238.0,"type":"GENERAL","notes":"","agreement":"NO","lat":"","lon":""},
{"codCNH":"350389","name":"CLÍNICA PARQUE FUERTEVENTURA","idRegion":"ES704","phone":"928851500","fax":"928532113","beds":12.0,"type":"MÉDICO-QUIRÚRGICO","notes":"","agreement":"NO","lat":"","lon":""},
{"codCNH":"350252","name":"HOSPITAL GENERAL DE FUERTEVENTURA","idRegion":"ES704","phone":"928862000","fax":"928862137","beds":131.0,"type":"GENERAL","notes":"","agreement":"NO","lat":"","lon":""},
{"codCNH":"110184","name":"HOSPITAL UNIVERSITARIO DE PUERTO REAL","idRegion":"ES612","phone":"956005147","fax":"956005658","beds":319.0,"type":"GENERAL","notes":"","agreement":"NO","lat":"","lon":""},
{"codCNH":"130071","name":"HOSPITAL SANTA BÁRBARA","idRegion":"ES422","phone":"926421100","fax":"926415659","beds":141.0,"type":"GENERAL","notes":"","agreement":"NO","lat":"41.77195705","lon":"-2.471252159575303"},
{"codCNH":"170277","name":"CENTRE SOCIOSANITARI DE PUIGCERDÀ","idRegion":"ES512","phone":"972880150","fax":"972881143","beds":52.0,"type":"GERIATRÍA Y/O LARGA ESTANCIA","notes":"","agreement":"NO","lat":"","lon":""},
{"codCNH":"170334","name":"HOSPITAL DE CERDANYA / HÔPITAL DE CERDAGNE","idRegion":"ES512","phone":"972114090","fax":"","beds":66.0,"type":"GENERAL","notes":"","agreement":"","lat":"","lon":""},
{"codCNH":"81304","name":"RESIDÈNCIA PUIG-REIG","idRegion":"ES511","phone":"938380045","fax":"","beds":30.0,"type":"GERIATRÍA Y/O LARGA ESTANCIA","notes":"","agreement":"NO","lat":"41.97794195","lon":"1.872447803319168"},
{"codCNH":"81483","name":"SAR MONT MARTÍ","idRegion":"ES511","phone":"938290138","fax":"938381306","beds":20.0,"type":"GERIATRÍA Y/O LARGA ESTANCIA","notes":"","agreement":"NO","lat":"","lon":""},
{"codCNH":"460288","name":"HOSPITAL GENERAL DE REQUENA","idRegion":"ES523","phone":"962339180","fax":"962304523","beds":113.0,"type":"GENERAL","notes":"","agreement":"NO","lat":"39.4884539","lon":"-1.0893597323523465"},
{"codCNH":"430249","name":"CENTRE SOCIOSANITARI CIUTAT DE REUS","idRegion":"ES514","phone":"977300021","fax":"977772601","beds":85.0,"type":"GERIATRÍA Y/O LARGA ESTANCIA","notes":"","agreement":"NO","lat":"","lon":""},
{"codCNH":"430094","name":"HOSPITAL UNIVERSITARI DE SANT JOAN DE REUS","idRegion":"ES514","phone":"977310300","fax":"977323690","beds":313.0,"type":"GENERAL","notes":"","agreement":"","lat":"","lon":""},
{"codCNH":"430108","name":"CENTRE MQ REUS","idRegion":"ES514","phone":"977010800","fax":"977317399","beds":50.0,"type":"GENERAL","notes":"","agreement":"","lat":"","lon":""},
{"codCNH":"430115","name":"VILLABLANCA SERVEIS ASSISTENCIALS, SA","idRegion":"ES514","phone":"977390011","fax":"977392363","beds":350.0,"type":"PSIQUIÁTRICO","notes":"","agreement":"NO","lat":"","lon":""},
{"codCNH":"430333","name":"UNITAT DE REFERÈNCIA DE PSIQUIATRIA I TRASTORNS DE LA CONDUCTA ALIMENTÀRIA (URPI)","idRegion":"ES514","phone":"977338565","fax":"","beds":20.0,"type":"PSIQUIÁTRICO","notes":"","agreement":"NO","lat":"","lon":""},
{"codCNH":"430120","name":"INSTITUT PERE MATA, S.A","idRegion":"ES514","phone":"977338565","fax":"977319400","beds":727.0,"type":"PSIQUIÁTRICO","notes":"","agreement":"NO","lat":"","lon":""},
{"codCNH":"150336","name":"HOSPITAL DA BARBANZA (*)","idRegion":"ES111","phone":"981835985","fax":"981835999","beds":81.0,"type":"GENERAL","notes":"RM compartida (3 unidades móviles RM)","agreement":"NO","lat":"42.6952285","lon":"-8.8606126"},
{"codCNH":"290371","name":"CLÍNICA RINCÓN","idRegion":"ES617","phone":"902300107","fax":"902300108","beds":7.0,"type":"OTROS MONOGRÁFICOS","notes":"","agreement":"NO","lat":"36.7471576","lon":"-3.8806526"},
{"codCNH":"82001","name":"SERVEIS SANITARIS LA ROCA DEL VALLES 2","idRegion":"ES511","phone":"932140100","fax":"932140179","beds":34.0,"type":"GENERAL","notes":"","agreement":"NO","lat":"","lon":""},
{"codCNH":"290506","name":"HOSPITAL DE LA SERRANÍA","idRegion":"ES617","phone":"951065077","fax":"951065242","beds":150.0,"type":"GENERAL","notes":"","agreement":"NO","lat":"","lon":""},
{"codCNH":"80958","name":"HOSPITAL DE SABADELL","idRegion":"ES511","phone":"937231010","fax":"937160646","beds":861.0,"type":"GENERAL","notes":"","agreement":"","lat":"41.5572661","lon":"2.109886237395104"},
{"codCNH":"82012","name":"CLÍNICA DEL VALLÈS","idRegion":"ES511","phone":"937283100","fax":"937283146","beds":107.0,"type":"GENERAL","notes":"","agreement":"","lat":"41.532514","lon":"2.1177936"},
{"codCNH":"82236","name":"CENTRE LA CREUETA","idRegion":"ES511","phone":"937451164","fax":"","beds":46.0,"type":"GERIATRÍA Y/O LARGA ESTANCIA","notes":"","agreement":"NO","lat":"41.5503852","lon":"2.1139115"},
{"codCNH":"500172","name":"UNIDAD DE REHABILITACION DE LARGA ESTANCIA","idRegion":"ES243","phone":"976675479","fax":"976675454","beds":45.0,"type":"PSIQUIÁTRICO","notes":"","agreement":"SI","lat":"","lon":""},
{"codCNH":"460266","name":"HOSPITAL DE SAGUNTO","idRegion":"ES523","phone":"962339300","fax":"962339301","beds":252.0,"type":"GENERAL","notes":"","agreement":"NO","lat":"39.6744027","lon":"-0.23108298812022898"},
{"codCNH":"430300","name":"CENTRE SOCIOSANITARI I RESIDÈNCIA ASSISTIDA SALOU","idRegion":"ES514","phone":"977774705","fax":"977774705","beds":30.0,"type":"GERIATRÍA Y/O LARGA ESTANCIA","notes":"","agreement":"NO","lat":"","lon":""},
{"codCNH":"170323","name":"CENTRE SOCIOSANITARI PARC HOSPITALARI MARTÍ I JULIÀ","idRegion":"ES512","phone":"972182512","fax":"972182575","beds":120.0,"type":"GERIATRÍA Y/O LARGA ESTANCIA","notes":"","agreement":"NO","lat":"","lon":""},
{"codCNH":"170216","name":"HOSPITAL PSIQUIÀTRIC","idRegion":"ES512","phone":"972182512","fax":"972182575","beds":593.0,"type":"PSIQUIÁTRICO","notes":"","agreement":"NO","lat":"39.58452835","lon":"2.643167766932394"},
{"codCNH":"170301","name":"HOSPITAL SANTA CATERINA-IAS","idRegion":"ES512","phone":"972182600","fax":"972182605","beds":178.0,"type":"GENERAL","notes":"","agreement":"","lat":"","lon":""},
{"codCNH":"240188","name":"HOSPITAL SAN JUAN DE DIOS","idRegion":"ES413","phone":"987232500","fax":"987243470","beds":297.0,"type":"GENERAL","notes":"","agreement":"SI","lat":"","lon":""},
{"codCNH":"460240","name":"HOSPITAL INTERMUTUAL DE LEVANTE","idRegion":"ES523","phone":"961350250","fax":"961350477","beds":230.0,"type":"TRAUMATOLOGÍA Y/O REHABILITACIÓN","notes":"","agreement":"NO","lat":"39.5535333","lon":"-0.4825441"},
{"codCNH":"350367","name":"HOSPITAL SAN ROQUE MASPALOMAS","idRegion":"ES705","phone":"928063600","fax":"928063644","beds":147.0,"type":"GENERAL","notes":"","agreement":"SI","lat":"27.74983515","lon":"-15.607310066172097"},
{"codCNH":"350304","name":"HOSPITAL CLÍNICA ROCA (ROCA GESTIÓN HOSPITALARIA)","idRegion":"ES705","phone":"928769004","fax":"928761248","beds":81.0,"type":"GENERAL","notes":"","agreement":"SI","lat":"","lon":""},
{"codCNH":"380178","name":"HOSPITAL UNIVERSITARIO DE CANARIAS (H.U.C)","idRegion":"ES709","phone":"922678061","fax":"922653808","beds":0.0,"type":"GENERAL","notes":"","agreement":"NO","lat":"","lon":""},
{"codCNH":"380326","name":"COMPLEJO HOSPITALARIO UNIVERSITARIO DE CANARIAS","idRegion":"ES709","phone":"922678061","fax":"922653808","beds":826.0,"type":"GENERAL","notes":"","agreement":"NO","lat":"","lon":""},
{"codCNH":"110305","name":"HOSPITAL SAN CARLOS","idRegion":"ES612","phone":"956598100","fax":"","beds":0.0,"type":"GENERAL","notes":"","agreement":"NO","lat":"","lon":""},
{"codCNH":"300222","name":"HOSPITAL GENERAL UNIVERSITARIO LOS ARCOS DEL MAR MENOR","idRegion":"ES620","phone":"968565000","fax":"968565030","beds":255.0,"type":"GENERAL","notes":"","agreement":"NO","lat":"37.81917095","lon":"-0.8598981509356811"},
{"codCNH":"280920","name":"HOSPITAL EL ESCORIAL","idRegion":"ES300","phone":"918973000","fax":"918973005","beds":91.0,"type":"GENERAL","notes":"","agreement":"NO","lat":"40.607227","lon":"-4.119638500000001"},
{"codCNH":"300339","name":"HOSPITAL DE CUIDADOS MEDIOS VILLADEMAR","idRegion":"ES620","phone":"968187346","fax":"968184822","beds":99.0,"type":"GERIATRÍA Y/O LARGA ESTANCIA","notes":"","agreement":"SI","lat":"","lon":""},
{"codCNH":"380244","name":"HOSPITAL NUESTRA SEÑORA DE GUADALUPE","idRegion":"ES706","phone":"922140200","fax":"922140250","beds":40.0,"type":"GENERAL","notes":"","agreement":"NO","lat":"","lon":""},
{"codCNH":"281258","name":"HOSPITAL UNIVERSITARIO INFANTA SOFÍA","idRegion":"ES300","phone":"911914000","fax":"911915017","beds":271.0,"type":"GENERAL","notes":"","agreement":"NO","lat":"","lon":""},
{"codCNH":"30187","name":"HOSPITAL SANT VICENT DEL RASPEIG","idRegion":"ES521","phone":"965907700","fax":"965907703","beds":179.0,"type":"GERIATRÍA Y/O LARGA ESTANCIA","notes":"","agreement":"NO","lat":"38.3964248","lon":"-0.5250338999999999"},
{"codCNH":"110223","name":"HOSPITAL VIRGEN DEL CAMINO","idRegion":"ES612","phone":"956048068","fax":"956048058","beds":118.0,"type":"GENERAL","notes":"","agreement":"SI","lat":"38.1654484","lon":"-0.9306806999999999"},
{"codCNH":"81287","name":"RESIDÈNCIA L'ESTADA","idRegion":"ES511","phone":"937926612","fax":"937926287","beds":60.0,"type":"GERIATRÍA Y/O LARGA ESTANCIA","notes":"","agreement":"NO","lat":"","lon":""},
{"codCNH":"80983","name":"PARC SANITARI SANT JOAN DE DÉU - RECINTE SANT BOI.","idRegion":"ES511","phone":"936406350","fax":"936520051","beds":1065.0,"type":"GENERAL","notes":"","agreement":"","lat":"","lon":""},
{"codCNH":"80977","name":"BENITO MENNI,COMPLEX ASSISTENCIAL EN SALUT MENTAL.","idRegion":"ES511","phone":"936402400","fax":"936400268","beds":774.0,"type":"PSIQUIÁTRICO","notes":"","agreement":"NO","lat":"","lon":""},
{"codCNH":"81228","name":"PRYTANIS SANT BOI CENTRE SOCIOSANITARI","idRegion":"ES511","phone":"936300931","fax":"936300877","beds":122.0,"type":"GERIATRÍA Y/O LARGA ESTANCIA","notes":"","agreement":"NO","lat":"","lon":""},
{"codCNH":"81000","name":"HOSPITAL DE SANT CELONI.","idRegion":"ES511","phone":"938670617","fax":"938672311","beds":100.0,"type":"GENERAL","notes":"","agreement":"","lat":"41.690137","lon":"2.4916702"},
{"codCNH":"81234","name":"CENTRE SOCIOSANITARI VERGE DEL PUIG","idRegion":"ES511","phone":"938673995","fax":"938672311","beds":40.0,"type":"GERIATRÍA Y/O LARGA ESTANCIA","notes":"","agreement":"NO","lat":"","lon":""},
{"codCNH":"82023","name":"CENTRE GERONTOLÒGIC AMMA SANT CUGAT","idRegion":"ES511","phone":"935836100","fax":"935895725","beds":4.0,"type":"GERIATRÍA Y/O LARGA ESTANCIA","notes":"","agreement":"NO","lat":"","lon":""},
{"codCNH":"81017","name":"HOSPITAL UNIVERSITARI GENERAL DE CATALUNYA","idRegion":"ES511","phone":"935656000","fax":"935892618","beds":286.0,"type":"GENERAL","notes":"","agreement":"NO","lat":"41.6267278","lon":"0.6136024999999999"},
{"codCNH":"82190","name":"IVÁN MAÑERO CLÍNIC","idRegion":"ES511","phone":"902401540","fax":"","beds":17.0,"type":"QUIRÚRGICO","notes":"","agreement":"NO","lat":"","lon":""},
{"codCNH":"80137","name":"CENTRE DE PREVENCIÓ I REHABILITACIÓ ASEPEYO","idRegion":"ES511","phone":"935653900","fax":"","beds":138.0,"type":"GENERAL","notes":"","agreement":"NO","lat":"41.48977960000001","lon":"2.0784011153051267"},
{"codCNH":"81919","name":"PARC SANITARI SANT JOAN DE DEU-SERVEIS SANITARIS CENTRE PENITENCIARI BRIANS-2","idRegion":"ES511","phone":"936935000","fax":"936935013","beds":152.0,"type":"GENERAL","notes":"","agreement":"NO","lat":"","lon":""},
{"codCNH":"81683","name":"PARC SANITARI SANT JOAN DE DEU - BRIANS 1.","idRegion":"ES511","phone":"937758000","fax":"937713661","beds":150.0,"type":"GENERAL","notes":"","agreement":"NO","lat":"","lon":""},
{"codCNH":"30250","name":"HOSPITAL UNIVERSITARIO SAN JUAN DE ALICANTE","idRegion":"ES521","phone":"965169400","fax":"965169520","beds":396.0,"type":"GENERAL","notes":"","agreement":"NO","lat":"","lon":""},
{"codCNH":"82034","name":"SERVEIS SANITARIS SANT JOAN DE VILATORRADA","idRegion":"ES511","phone":"932140100","fax":"932140179","beds":56.0,"type":"GENERAL","notes":"","agreement":"NO","lat":"","lon":""},
{"codCNH":"82066","name":"HOSPITAL DE SANT JOAN DESPÍ MOISÈS BROGGI","idRegion":"ES511","phone":"935531200","fax":"","beds":328.0,"type":"GENERAL","notes":"","agreement":"","lat":"41.3731841","lon":"2.0726252526945275"},
{"codCNH":"81038","name":"HOSPITAL RESIDÈNCIA SANT CAMIL - CONSORCI SANITARI DEL GARRAF.","idRegion":"ES511","phone":"938960025","fax":"938961287","beds":295.0,"type":"GENERAL","notes":"","agreement":"","lat":"","lon":""},
{"codCNH":"350265","name":"QUINTA MÉDICA DE REPOSO, S.A.","idRegion":"ES705","phone":"928640050","fax":"928641407","beds":78.0,"type":"PSIQUIÁTRICO","notes":"","agreement":"NO","lat":"","lon":""},
{"codCNH":"81069","name":"FUNDACIÓ HOSPITAL DE L'ESPERIT SANT","idRegion":"ES511","phone":"933869648","fax":"933850100","beds":177.0,"type":"GENERAL","notes":"","agreement":"","lat":"","lon":""},
{"codCNH":"81056","name":"CENTRES ASSISTENCIALS DR. EMILI MIRA I LÓPEZ (RECINTE TORRIBERA).","idRegion":"ES511","phone":"934628926","fax":"934683742","beds":454.0,"type":"PSIQUIÁTRICO","notes":"","agreement":"NO","lat":"","lon":""},
{"codCNH":"390152","name":"CLÍNICA MOMPÍA, S.A.U.","idRegion":"ES130","phone":"942584100","fax":"942584114","beds":105.0,"type":"GENERAL","notes":"","agreement":"NO","lat":"","lon":""},
{"codCNH":"380260","name":"HOSPITAL NUESTRA SEÑORA DE LOS DOLORES","idRegion":"ES707","phone":"922423204","fax":"922420552","beds":144.0,"type":"GERIATRÍA Y/O LARGA ESTANCIA","notes":"","agreement":"SI","lat":"28.4486103","lon":"-16.30885475696938"},
{"codCNH":"380099","name":"VITHAS HOSPITAL SANTA CRUZ","idRegion":"ES709","phone":"922534733","fax":"922281166","beds":61.0,"type":"GENERAL","notes":"","agreement":"SI","lat":"","lon":""},
{"codCNH":"350271","name":"HOSPITAL DE SAN ROQUE GUÍA","idRegion":"ES705","phone":"928882000","fax":"928888221","beds":0.0,"type":"GERIATRÍA Y/O LARGA ESTANCIA","notes":"","agreement":"NO","lat":"","lon":""},
{"codCNH":"430213","name":"POLICLÍNICA COMARCAL DEL VENDRELL.","idRegion":"ES511","phone":"977660140","fax":"977666337","beds":136.0,"type":"GERIATRÍA Y/O LARGA ESTANCIA","notes":"","agreement":"NO","lat":"41.22608505","lon":"1.538194821786097"},
{"codCNH":"150365","name":"HOSPITAL HM ROSALEDA - HM LA ESPERANZA","idRegion":"ES111","phone":"981551200","fax":"981563592","beds":119.0,"type":"GENERAL","notes":"","agreement":"SI","lat":"","lon":""},
{"codCNH":"150256","name":"HOSPITAL HM ESPERANZA","idRegion":"ES111","phone":"981552200","fax":"981158248","beds":0.0,"type":"GENERAL","notes":"","agreement":"SI","lat":"","lon":""},
{"codCNH":"150269","name":"HOSPITAL HM ROSALEDA","idRegion":"ES111","phone":"981551200","fax":"","beds":0.0,"type":"GENERAL","notes":"","agreement":"SI","lat":"","lon":""},
{"codCNH":"150222","name":"HOSPITAL GIL CASARES","idRegion":"ES111","phone":"981950000","fax":"981950900","beds":0.0,"type":"GENERAL","notes":"","agreement":"NO","lat":"42.86875375","lon":"-8.563915998568572"},
{"codCNH":"150238","name":"HOSPITAL MEDICO CIRURXICO DE CONXO","idRegion":"ES111","phone":"981951500","fax":"981950900","beds":0.0,"type":"GENERAL","notes":"","agreement":"NO","lat":"","lon":""},
{"codCNH":"150217","name":"HOSPITAL CLINICO UNIVERSITARIO DE SANTIAGO","idRegion":"ES111","phone":"981950000","fax":"981950900","beds":0.0,"type":"GENERAL","notes":"","agreement":"NO","lat":"","lon":""},
{"codCNH":"150243","name":"HOSPITAL PSIQUIATRICO DE CONXO","idRegion":"ES111","phone":"981951900","fax":"981951901","beds":0.0,"type":"GENERAL","notes":"","agreement":"NO","lat":"42.8623475","lon":"-8.5563246"},
{"codCNH":"150200","name":"COMPLEXO HOSPITALARIO UNIVERSITARIO DE SANTIAGO","idRegion":"ES111","phone":"981950000","fax":"981950900","beds":1395.0,"type":"GENERAL","notes":"","agreement":"NO","lat":"42.86984365","lon":"-8.565894348783276"},
{"codCNH":"480293","name":"AVANCES MÉDICOS S.A","idRegion":"ES213","phone":"902407071","fax":"944833374","beds":24.0,"type":"PSIQUIÁTRICO","notes":"","agreement":"NO","lat":"","lon":""},
{"codCNH":"480255","name":"HOSPITAL SAN JUAN DE DIOS","idRegion":"ES213","phone":"944939900","fax":"944939907","beds":105.0,"type":"GENERAL","notes":"","agreement":"SI","lat":"","lon":""},
{"codCNH":"460272","name":"HOSPITAL DOCTOR MOLINER","idRegion":"ES523","phone":"961687900","fax":"961687901","beds":179.0,"type":"GERIATRÍA Y/O LARGA ESTANCIA","notes":"","agreement":"NO","lat":"39.65591679999999","lon":"-0.4742682180919162"},
{"codCNH":"250117","name":"FUNDACIÓ SANT HOSPITAL.","idRegion":"ES513","phone":"973350050","fax":"973353505","beds":88.0,"type":"GENERAL","notes":"","agreement":"","lat":"42.3548545","lon":"1.4609584999999998"},
{"codCNH":"250138","name":"CENTRE SANITARI DEL SOLSONÈS, FPC","idRegion":"ES513","phone":"973481172","fax":"973481098","beds":32.0,"type":"GERIATRÍA Y/O LARGA ESTANCIA","notes":"","agreement":"NO","lat":"","lon":""},
{"codCNH":"380359","name":"CLÍNICA TARA","idRegion":"ES709","phone":"922563351","fax":"922563499","beds":12.0,"type":"GENERAL","notes":"","agreement":"SI","lat":"28.478104300000002","lon":"-16.403262599999998"},
{"codCNH":"60231","name":"HOSPITAL SIBERIA-SERENA","idRegion":"ES431","phone":"924648100","fax":"924648111","beds":0.0,"type":"GENERAL","notes":"","agreement":"NO","lat":"39.031241200000004","lon":"-5.223697347278689"},
{"codCNH":"450089","name":"CLÍNICA MARAZUELA, S.A.","idRegion":"ES425","phone":"925815281","fax":"925815141","beds":15.0,"type":"GENERAL","notes":"","agreement":"NO","lat":"39.96195195","lon":"-4.825014369163424"},
{"codCNH":"450067","name":"HOSPITAL GENERAL NUESTRA SEÑORA DEL PRADO","idRegion":"ES425","phone":"925803600","fax":"925815444","beds":312.0,"type":"GENERAL","notes":"","agreement":"NO","lat":"39.957868299999994","lon":"-4.853211"},
{"codCNH":"350390","name":"CLINICA JORGANI","idRegion":"ES708","phone":"928346868","fax":"928346363","beds":11.0,"type":"GENERAL","notes":"","agreement":"NO","lat":"","lon":""},
{"codCNH":"350287","name":"HOSPITAL CIUDAD DE TELDE","idRegion":"ES705","phone":"928707555","fax":"928707554","beds":219.0,"type":"GERIATRÍA Y/O LARGA ESTANCIA","notes":"","agreement":"SI","lat":"","lon":""},
{"codCNH":"81075","name":"HOSPITAL DE TERRASSA.","idRegion":"ES511","phone":"937310007","fax":"937310959","beds":460.0,"type":"GENERAL","notes":"","agreement":"","lat":"41.5568023","lon":"2.0531018638517624"},
{"codCNH":"81081","name":"HOSPITAL DE SANT LLÀTZER","idRegion":"ES511","phone":"937837111","fax":"937831555","beds":77.0,"type":"GERIATRÍA Y/O LARGA ESTANCIA","notes":"","agreement":"NO","lat":"41.56261050000001","lon":"2.017399878476925"},
{"codCNH":"81094","name":"HOSPITAL UNIVERSITARI MÚTUA DE TERRASSA","idRegion":"ES511","phone":"937365050","fax":"937365059","beds":534.0,"type":"GENERAL","notes":"","agreement":"","lat":"","lon":""},
{"codCNH":"81458","name":"ÀPTIMA CENTRE CLÍNIC - MÚTUA DE TERRASSA","idRegion":"ES511","phone":"937365072","fax":"937365009","beds":70.0,"type":"GENERAL","notes":"","agreement":"NO","lat":"","lon":""},
{"codCNH":"81728","name":"HOSPITAL GENERAL PENITENCIARI","idRegion":"ES511","phone":"937317861","fax":"","beds":32.0,"type":"GENERAL","notes":"","agreement":"NO","lat":"41.76029295","lon":"1.8079555786366417"},
{"codCNH":"81537","name":"CENTRE VALLPARADÍS","idRegion":"ES511","phone":"937365030","fax":"937365009","beds":81.0,"type":"GERIATRÍA Y/O LARGA ESTANCIA","notes":"","agreement":"NO","lat":"41.566000700000004","lon":"2.0208153"},
{"codCNH":"350326","name":"HOSPITEN LANZAROTE (CLÍNICAS DEL SUR S.L.U.)","idRegion":"ES708","phone":"928596100","fax":"928515635","beds":61.0,"type":"GENERAL","notes":"","agreement":"SI","lat":"","lon":""},
{"codCNH":"200219","name":"CLINICA SANTA MARÍA DE LA ASUNCIÓN, (INVIZA, S.A.)","idRegion":"ES212","phone":"943697000","fax":"943674438","beds":120.0,"type":"GENERAL","notes":"","agreement":"SI","lat":"","lon":""},
{"codCNH":"130128","name":"HOSPITAL GENERAL DE TOMELLOSO","idRegion":"ES422","phone":"926525800","fax":"","beds":155.0,"type":"GENERAL","notes":"","agreement":"NO","lat":"","lon":""},
{"codCNH":"281337","name":"HOSPITAL UNIVERSITARIO DE TORREJÓN","idRegion":"ES300","phone":"916262518","fax":"914886624","beds":250.0,"type":"GENERAL","notes":"","agreement":"NO","lat":"40.46509355","lon":"-3.4362904832578587"},
{"codCNH":"390149","name":"HOSPITAL SIERRALLANA","idRegion":"ES130","phone":"942847400","fax":"942847501","beds":301.0,"type":"GENERAL","notes":"Se incluyen las camas del Dispositivo Asistencial Tres Mares","agreement":"NO","lat":"43.3661136","lon":"-4.0737284"},
{"codCNH":"281157","name":"HOSPITAL UNIVERSITARIO HM TORRELODONES","idRegion":"ES300","phone":"912675000","fax":"918591555","beds":86.0,"type":"GENERAL","notes":"","agreement":"SI","lat":"","lon":""},
{"codCNH":"290213","name":"HOSPITAL MARÍTIMO DE TORREMOLINOS","idRegion":"ES617","phone":"951033735","fax":"951033705","beds":0.0,"type":"GENERAL","notes":"","agreement":"NO","lat":"36.63713775","lon":"-4.487456676361466"},
{"codCNH":"290228","name":"CLÍNICA SANTA ELENA","idRegion":"ES617","phone":"952386266","fax":"952380309","beds":90.0,"type":"GENERAL","notes":"","agreement":"NO","lat":"40.445681799999996","lon":"-3.716825558930167"},
{"codCNH":"30298","name":"HOSPÌTAL QUIRONSALUD TORREVIEJA","idRegion":"ES521","phone":"966921313","fax":"966922706","beds":132.0,"type":"GENERAL","notes":"","agreement":"SI","lat":"","lon":""},
{"codCNH":"30339","name":"HOSPITAL UNIVERSITARIO DE TORREVIEJA","idRegion":"ES521","phone":"965721200","fax":"965721368","beds":269.0,"type":"GENERAL","notes":"Concesión Administrativa a Entidad Privada","agreement":"NO","lat":"","lon":""},
{"codCNH":"430167","name":"HOSPITAL DE TORTOSA VERGE DE LA CINTA","idRegion":"ES514","phone":"977519100","fax":"977519111","beds":248.0,"type":"GENERAL","notes":"","agreement":"","lat":"40.81114525","lon":"0.5246534850153289"},
{"codCNH":"430173","name":"HOSPITAL DE LA SANTA CREU","idRegion":"ES514","phone":"977500533","fax":"977500085","beds":250.0,"type":"GERIATRÍA Y/O LARGA ESTANCIA","notes":"","agreement":"NO","lat":"40.827855","lon":"0.5095964465825074"},
{"codCNH":"430189","name":"CLÍNICA TERRES DE L'EBRE","idRegion":"ES514","phone":"977588200","fax":"977588195","beds":40.0,"type":"GENERAL","notes":"","agreement":"","lat":"","lon":""},
{"codCNH":"250143","name":"HOSPITAL COMARCAL DEL PALLARS","idRegion":"ES513","phone":"973652255","fax":"973651487","beds":63.0,"type":"GENERAL","notes":"","agreement":"","lat":"42.1644941","lon":"0.8973612"},
{"codCNH":"310137","name":"HOSPITAL REINA SOFÍA","idRegion":"ES220","phone":"848434000","fax":"848434111","beds":190.0,"type":"GENERAL","notes":"","agreement":"NO","lat":"42.0408381","lon":"-1.6252839213207353"},
{"codCNH":"230098","name":"HOSPITAL SAN JUAN DE LA CRUZ","idRegion":"ES616","phone":"953028200","fax":"953028251","beds":231.0,"type":"GENERAL","notes":"","agreement":"NO","lat":"38.01945355","lon":"-3.3850601020055966"},
{"codCNH":"480327","name":"HOSPITAL URDULIZ OSPITALEA","idRegion":"ES213","phone":"946007005","fax":"","beds":128.0,"type":"GENERAL","notes":"","agreement":"NO","lat":"43.37511385","lon":"-2.959909316992888"},
{"codCNH":"200230","name":"SANATORIO DE USURBIL, S.L.","idRegion":"ES212","phone":"943361124","fax":"943362898","beds":80.0,"type":"PSIQUIÁTRICO","notes":"","agreement":"SI","lat":"43.272630799999995","lon":"-2.0610665889562196"},
{"codCNH":"410386","name":"HOSPITAL DE ALTA RESOLUCIÓN DE UTRERA","idRegion":"ES618","phone":"955839097","fax":"955099147","beds":14.0,"type":"GENERAL","notes":"","agreement":"NO","lat":"37.1756949","lon":"-5.785237272103666"},
{"codCNH":"281236","name":"HOSPITAL UNIVERSITARIO INFANTA ELENA","idRegion":"ES300","phone":"918948410","fax":"918948538","beds":158.0,"type":"GENERAL","notes":"","agreement":"NO","lat":"","lon":""},
{"codCNH":"130087","name":"HOSPITAL GENERAL DE VALDEPEÑAS","idRegion":"ES422","phone":"926320200","fax":"","beds":103.0,"type":"GENERAL","notes":"","agreement":"NO","lat":"","lon":""},
{"codCNH":"330313","name":"HOSPITAL DE LUARCA -ASISTENCIA MÉDICA OCCIDENTALSL","idRegion":"ES120","phone":"985470707","fax":"985470737","beds":19.0,"type":"OTROS MONOGRÁFICOS","notes":"","agreement":"NO","lat":"","lon":""},
{"codCNH":"30190","name":"SANATORIO SAN FRANCISCO DE BORJA FONTILLES","idRegion":"ES521","phone":"965583350","fax":"965583376","beds":96.0,"type":"GERIATRÍA Y/O LARGA ESTANCIA","notes":"","agreement":"NO","lat":"38.77684945","lon":"-0.08776492322363694"},
{"codCNH":"430228","name":"PIUS HOSPITAL DE VALLS","idRegion":"ES514","phone":"977613000","fax":"977605014","beds":142.0,"type":"GENERAL","notes":"","agreement":"","lat":"41.283092700000005","lon":"1.2513743999999998"},
{"codCNH":"430234","name":"RESIDÈNCIA ALT CAMP","idRegion":"ES514","phone":"977600292","fax":"977603814","beds":50.0,"type":"GERIATRÍA Y/O LARGA ESTANCIA","notes":"","agreement":"NO","lat":"41.22160505","lon":"1.2621495311509046"},
{"codCNH":"380276","name":"HOSPITAL INSULAR NTRA. SRA. DE LOS REYES","idRegion":"ES703","phone":"922553500","fax":"922553512","beds":32.0,"type":"GENERAL","notes":"","agreement":"NO","lat":"","lon":""},
{"codCNH":"290206","name":"HOSPITAL DE LA AXARQUÍA","idRegion":"ES617","phone":"951067010","fax":"951067009","beds":197.0,"type":"GENERAL","notes":"","agreement":"NO","lat":"36.86647765","lon":"-4.111017160388603"},
{"codCNH":"290348","name":"CLÍNICA EL SERANIL","idRegion":"ES617","phone":"952513267","fax":"952513900","beds":60.0,"type":"PSIQUIÁTRICO","notes":"","agreement":"NO","lat":"36.715762299999994","lon":"-4.1990574"},
{"codCNH":"430298","name":"HOSPITAL DEL VENDRELL","idRegion":"ES514","phone":"977257900","fax":"977257915","beds":120.0,"type":"GENERAL","notes":"","agreement":"","lat":"41.22713515","lon":"1.5537422859808887"},
{"codCNH":"320150","name":"HOSPITAL DE VERIN","idRegion":"ES113","phone":"988413636","fax":"988411087","beds":80.0,"type":"GENERAL","notes":"RM compartida (3 unidades móviles RM)","agreement":"NO","lat":"41.9541059","lon":"-7.430291499999999"},
{"codCNH":"81120","name":"HOSPITAL DE LA SANTA CREU","idRegion":"ES511","phone":"938833300","fax":"938895087","beds":127.0,"type":"GERIATRÍA Y/O LARGA ESTANCIA","notes":"","agreement":"NO","lat":"40.827855","lon":"0.5095964465825074"},
{"codCNH":"81115","name":"CLÍNICA SANT JOSEP","idRegion":"ES511","phone":"938861700","fax":"938891779","beds":21.0,"type":"GENERAL","notes":"","agreement":"NO","lat":"41.72265295","lon":"1.8323943362254929"},
{"codCNH":"81108","name":"HOSPITAL  UNIVERSITARI DE VIC","idRegion":"ES511","phone":"938891111","fax":"938850308","beds":292.0,"type":"GENERAL","notes":"","agreement":"","lat":"41.93692715","lon":"2.2601401989331857"},
{"codCNH":"250156","name":"ESPITAU VAL D'ARAN","idRegion":"ES513","phone":"973640004","fax":"973640529","beds":31.0,"type":"GENERAL","notes":"","agreement":"","lat":"42.702264899999996","lon":"0.7973510489816078"},
{"codCNH":"360209","name":"VITHAS HOSPITAL NOSA SEÑORA DE FATIMA","idRegion":"ES114","phone":"986821100","fax":"986480062","beds":200.0,"type":"GENERAL","notes":"","agreement":"SI","lat":"","lon":""},
{"codCNH":"360216","name":"CONCHEIRO CENTRO MEDICO QUIRURGICO","idRegion":"ES114","phone":"986413244","fax":"986419908","beds":40.0,"type":"QUIRÚRGICO","notes":"","agreement":"SI","lat":"","lon":""},
{"codCNH":"360255","name":"CENTRO MEDICO PINTADO","idRegion":"ES114","phone":"986413300","fax":"986412968","beds":12.0,"type":"MATERNO-INFANTIL","notes":"","agreement":"NO","lat":"37.3779518","lon":"-6.124662337491516"},
{"codCNH":"360268","name":"SANATORIO PSIQUIATRICO SAN JOSE","idRegion":"ES114","phone":"986235606","fax":"986211249","beds":48.0,"type":"PSIQUIÁTRICO","notes":"","agreement":"NO","lat":"","lon":""},
{"codCNH":"360195","name":"HOSPITAL HM VIGO","idRegion":"ES114","phone":"986411466","fax":"986485510","beds":12.0,"type":"GENERAL","notes":"","agreement":"NO","lat":"","lon":""},
{"codCNH":"360368","name":"COMPLEXO HOSPITALARIO UNIVERSITARIO DE VIGO","idRegion":"ES114","phone":"986816000","fax":"986816029","beds":1273.0,"type":"GENERAL","notes":"","agreement":"NO","lat":"","lon":""},
{"codCNH":"360118","name":"HOSPITAL MEIXOEIRO","idRegion":"","phone":"986811111","fax":"986276416","beds":0.0,"type":"GENERAL","notes":"","agreement":"NO","lat":"42.2145115","lon":"-8.6847362"},
{"codCNH":"360157","name":"HOSPITAL NICOLAS PEÑA","idRegion":"ES114","phone":"986219115","fax":"986219124","beds":0.0,"type":"GENERAL","notes":"","agreement":"NO","lat":"42.2251833","lon":"-8.728477180410696"},
{"codCNH":"360182","name":"HOSPITAL POVISA","idRegion":"ES114","phone":"986413144","fax":"986421439","beds":573.0,"type":"GENERAL","notes":"","agreement":"SI","lat":"42.2236592","lon":"-8.726596918338641"},
{"codCNH":"360160","name":"FREMAP, HOSPITAL DE VIGO","idRegion":"ES114","phone":"986413033","fax":"986413099","beds":17.0,"type":"TRAUMATOLOGÍA Y/O REHABILITACIÓN","notes":"","agreement":"NO","lat":"","lon":""},
{"codCNH":"360274","name":"CLINICA RESIDENCIA EL PINAR","idRegion":"ES114","phone":"986266400","fax":"986267733","beds":84.0,"type":"PSIQUIÁTRICO","notes":"","agreement":"SI","lat":"40.02372025","lon":"-3.9168576336949035"},
{"codCNH":"360379","name":"HOSPITAL UNIVERSITARIO ALVARO CUNQUEIRO","idRegion":"ES114","phone":"986811111","fax":"986825173","beds":0.0,"type":"GENERAL","notes":"","agreement":"NO","lat":"","lon":""},
{"codCNH":"81141","name":"HOSPITAL DE VILADECANS","idRegion":"ES511","phone":"936590111","fax":"936590612","beds":110.0,"type":"GENERAL","notes":"","agreement":"","lat":"41.316308299999996","lon":"2.0156034"},
{"codCNH":"81896","name":"CENTRE SOCIAL I SANITARI FREDERICA MONTSENY","idRegion":"ES511","phone":"936473525","fax":"932111428","beds":76.0,"type":"GERIATRÍA Y/O LARGA ESTANCIA","notes":"","agreement":"NO","lat":"","lon":""},
{"codCNH":"81430","name":"HOSPITAL COMARCAL DE L'ALT PENEDÈS.","idRegion":"ES511","phone":"938180440","fax":"938180491","beds":144.0,"type":"GENERAL","notes":"","agreement":"","lat":"41.35659015","lon":"1.7050399634265236"},
{"codCNH":"81795","name":"CENTRE SOCIOSANITARI RICARD FORTUNY","idRegion":"ES511","phone":"938172357","fax":"938904440","beds":187.0,"type":"GERIATRÍA Y/O LARGA ESTANCIA","notes":"","agreement":"NO","lat":"","lon":""},
{"codCNH":"360353","name":"HOSPITAL DO SALNES (*)","idRegion":"ES114","phone":"986568000","fax":"986568001","beds":122.0,"type":"GENERAL","notes":"RM compartida (3 unidades móviles RM)","agreement":"NO","lat":"42.5138575","lon":"-8.75159831498814"},
{"codCNH":"81189","name":"HOSPITAL SANT ANTONI ABAT - CONSORCI SANITARI DEL GARRAF.","idRegion":"ES511","phone":"938931616","fax":"938140042","beds":111.0,"type":"GERIATRÍA Y/O LARGA ESTANCIA","notes":"","agreement":"","lat":"","lon":""},
{"codCNH":"120136","name":"HOSPITAL UNIVERSITARIO DE LA PLANA","idRegion":"ES522","phone":"964399775","fax":"964399858","beds":258.0,"type":"GENERAL","notes":"","agreement":"NO","lat":"","lon":""},
{"codCNH":"430276","name":"RESIDÈNCIA VILA-SECA","idRegion":"ES514","phone":"977395825","fax":"","beds":35.0,"type":"GERIATRÍA Y/O LARGA ESTANCIA","notes":"","agreement":"NO","lat":"41.11106475","lon":"1.1493389713169768"},
{"codCNH":"81022","name":"CASAL DE CURACIÓ","idRegion":"ES511","phone":"937590241","fax":"937500420","beds":81.0,"type":"GERIATRÍA Y/O LARGA ESTANCIA","notes":"","agreement":"NO","lat":"41.50162945","lon":"2.3858982759032648"},
{"codCNH":"280936","name":"HOSPITAL VIRGEN DE LA POVEDA","idRegion":"ES300","phone":"918608000","fax":"918620100","beds":202.0,"type":"GERIATRÍA Y/O LARGA ESTANCIA","notes":"","agreement":"NO","lat":"","lon":""},
{"codCNH":"240220","name":"HOSPITAL VALLE DE LACIANA","idRegion":"ES413","phone":"987481057","fax":"987470837","beds":15.0,"type":"GERIATRÍA Y/O LARGA ESTANCIA","notes":"","agreement":"SI","lat":"","lon":""},
{"codCNH":"30204","name":"HOSPITAL MARINA BAIXA DE LA VILA JOIOSA","idRegion":"ES521","phone":"966859800","fax":"966859900","beds":286.0,"type":"GENERAL","notes":"","agreement":"SI","lat":"38.506750200000006","lon":"-0.2311157"},
{"codCNH":"110218","name":"HOSPITAL VIRGEN DE LAS MONTAÑAS","idRegion":"ES612","phone":"956041000","fax":"956041075","beds":108.0,"type":"GENERAL","notes":"","agreement":"SI","lat":"37.37527","lon":"-6.0031429"},
{"codCNH":"60140","name":"HOSPITAL QUIRÓNSALUD SANTA JUSTA","idRegion":"ES431","phone":"924840746","fax":"924847505","beds":29.0,"type":"QUIRÚRGICO","notes":"","agreement":"SI","lat":"","lon":""},
{"codCNH":"240205","name":"CLÍNICA ALTOLLANO","idRegion":"ES413","phone":"987286000","fax":"987286012","beds":110.0,"type":"GENERAL","notes":"","agreement":"SI","lat":"42.623935100000004","lon":"-5.5736995710571815"},
{"codCNH":"20147","name":"HOSPITAL GENERAL DE VILLAROBLEDO","idRegion":"ES421","phone":"967133000","fax":"967133002","beds":114.0,"type":"GENERAL","notes":"","agreement":"NO","lat":"","lon":""},
{"codCNH":"120115","name":"HOSPITAL COMARCAL DE VINARÒS","idRegion":"ES522","phone":"964477000","fax":"964400736","beds":150.0,"type":"GENERAL","notes":"","agreement":"NO","lat":"40.4638585","lon":"0.4499678"},
{"codCNH":"460229","name":"HOSPITAL LLUÍS ALCANYÍS DE XÀTIVA","idRegion":"ES523","phone":"962289300","fax":"962289354","beds":273.0,"type":"GENERAL","notes":"","agreement":"NO","lat":"39.0066786","lon":"-0.5096208437643529"},
{"codCNH":"190061","name":"U.R.R. DE ENFERMOS PSÍQUICOS ALCOHETE","idRegion":"ES424","phone":"949885402","fax":"949291001","beds":165.0,"type":"PSIQUIÁTRICO","notes":"","agreement":"NO","lat":"","lon":""},
{"codCNH":"300243","name":"HOSPITAL VIRGEN DEL CASTILLO","idRegion":"ES620","phone":"968719800","fax":"968719806","beds":96.0,"type":"GENERAL","notes":"","agreement":"NO","lat":"38.61568215","lon":"-1.1079025116061842"},
{"codCNH":"60188","name":"HOSPITAL PARQUE VIA DE LA PLATA","idRegion":"ES431","phone":"924552755","fax":"924555388","beds":9.0,"type":"GENERAL","notes":"","agreement":"SI","lat":"39.48694535","lon":"-6.371813033242754"},
{"codCNH":"60208","name":"HOSPITAL DE ZAFRA","idRegion":"ES431","phone":"924029200","fax":"942029320","beds":0.0,"type":"GENERAL","notes":"","agreement":"NO","lat":"38.4304576","lon":"-6.4218064779142585"},
{"codCNH":"480268","name":"RED DE SALUD MENTAL DE BIZKAIA (HOSPITAL DE ZALDIBAR)","idRegion":"ES213","phone":"946032800","fax":"946032819","beds":111.0,"type":"PSIQUIÁTRICO","notes":"","agreement":"NO","lat":"","lon":""},
{"codCNH":"480274","name":"RED DE SALUD MENTAL DE BIZKAIA (HOSPITAL DE ZAMUDIO)","idRegion":"ES213","phone":"944006500","fax":"944006526","beds":126.0,"type":"PSIQUIÁTRICO","notes":"","agreement":"NO","lat":"","lon":""},
{"codCNH":"200245","name":"HOSPITAL DE ZUMARRAGA","idRegion":"ES212","phone":"943035000","fax":"943035063","beds":128.0,"type":"GENERAL","notes":"","agreement":"NO","lat":"43.0835953","lon":"-2.3130193"},
{"codCNH":"20158","name":"CENTRO DE ATENCIÓN A LA SALUD MENTAL \"LA MILAGROSA\"","idRegion":"ES421","phone":"967192350","fax":"967248989","beds":0.0,"type":"PSIQUIÁTRICO","notes":"","agreement":"NO","lat":"","lon":""},
{"codCNH":"20117","name":"HOSPITAL UNIVERSITARIO NUESTRA SEÑORA DEL PERPETUO SOCORRO","idRegion":"ES421","phone":"967597799","fax":"967597711","beds":0.0,"type":"GENERAL","notes":"","agreement":"NO","lat":"","lon":""},